timestamp,x,y,z,qx,qy,qz,qw,roll,pitch,yaw,gripper_cmd_0to1,gripper_activated,gripper_last_action,logging_active
2026-01-14 21:26:34.488,0.10991611516377248,1.0124340995019059,0.6545509765269122,0.11088281124341089,0.9007780876010788,0.4185519588202058,0.03343795502524338,2.275405585139159,-0.03258584783523934,2.911699357584819,1.0,0,init,1
2026-01-14 21:26:34.538,0.11400345326368898,1.0086704721833408,0.6337629913783412,0.11452882152989871,0.9053851542462401,0.4074499356123687,0.033844075980311875,2.299657155713587,-0.03205116130068858,2.9042859551715363,1.0,0,init,1
2026-01-14 21:26:34.588,0.119142256042451,1.003520380420498,0.6092156861851061,0.11901768615112718,0.9105895420587007,0.39430564541151014,0.03441706369186651,2.3281640091017737,-0.031184108485527107,2.8950910205366926,1.0,0,init,1
2026-01-14 21:26:34.638,0.12485215470464936,0.9972118917022896,0.5827562441905694,0.12402707301429464,0.9159686284616005,0.379998045804187,0.0349319627086743,2.358999379874303,-0.030271549896071146,2.8849089762038154,1.0,0,init,1
2026-01-14 21:26:34.688,0.12984616632604248,0.9902096861834336,0.5562694565751063,0.1286721100287686,0.921184127024025,0.36562723439254025,0.034351385564369064,2.3900260871014614,-0.03080902695712687,2.8761820725589793,1.0,0,init,1
2026-01-14 21:26:34.738,0.13401051065934105,0.9826950669904315,0.530996591453807,0.13292495603738771,0.9259959808057084,0.3518213628559807,0.032926102597984085,2.419876541538604,-0.03255855307100103,2.8687323843005252,1.0,0,init,1
2026-01-14 21:26:34.788,0.13756171713558352,0.9750260187023462,0.5075888473086922,0.13690127470982227,0.9302833792344846,0.33887883526193047,0.03149619523707057,2.4477394554580174,-0.034191776913447734,2.86173151155904,1.0,0,init,1
2026-01-14 21:26:34.838,0.14070457340139572,0.96735445044605,0.48616569999815434,0.1406331371770166,0.9340644502657143,0.32685935926862647,0.030147682100994867,2.473502407538428,-0.03562229132809358,2.855080567248479,1.0,0,init,1
2026-01-14 21:26:34.888,0.14350858726949808,0.9599250876067287,0.46691015224621935,0.14412379814195106,0.9373254036549586,0.31593789434023206,0.028855942058220348,2.496838677951798,-0.03698195278637221,2.8488152948800374,1.0,0,init,1
2026-01-14 21:26:34.938,0.14577470684841085,0.9531008478325268,0.45026312126486057,0.1471480386169403,0.9400596309161644,0.3063779076898848,0.027711418811034977,2.517198245727019,-0.03807424247938058,2.843341354419435,1.0,0,init,1
2026-01-14 21:26:34.988,0.14802270595601996,0.9462095980758896,0.4343840340498534,0.15015489583414085,0.942572614624368,0.29715728818905324,0.02660675653568284,2.5367783638193186,-0.039091598723598,2.837837993643964,1.0,0,init,1
2026-01-14 21:26:35.038,0.14985791445052202,0.9400104175643202,0.42082078690579683,0.15279792121447286,0.9446469037245537,0.2892037161821672,0.02561704710878854,2.5536350584250753,-0.0399919842153826,2.8329768592151896,1.0,0,init,1
2026-01-14 21:26:35.088,0.15164213697078485,0.9340612391296014,0.408259415075217,0.15535221388413775,0.9464970859133078,0.2817798466452083,0.02467942510506727,2.5693399408680597,-0.04084359304759914,2.828243703897645,1.0,0,init,1
2026-01-14 21:26:35.138,0.15346577955025031,0.9282737959175782,0.39668112290700774,0.15785824867977497,0.9481423186325202,0.274843461132419,0.023832515911154064,2.583978379113127,-0.04159137112860748,2.8235425753292844,1.0,0,init,1
2026-01-14 21:26:35.188,0.15536839275819422,0.9223594169733309,0.38520415941638864,0.16044457995204373,0.9497086089253775,0.2679231468032454,0.022984392619409915,2.5985583749920416,-0.042329322026478794,2.8186572741029203,1.0,0,init,1
2026-01-14 21:26:35.238,0.1577964614973932,0.9160596159485296,0.37363669677123723,0.16339506813893784,0.9511808735446425,0.26089264216281477,0.022181676582889026,2.613335980848876,-0.043072886497769206,2.8130014660572846,1.0,0,init,1
2026-01-14 21:26:35.288,0.160739289224289,0.909138072365381,0.361499190047626,0.1667859822902068,0.9526255575165861,0.2534374958283694,0.021363964658972705,2.6289751901348706,-0.04384997714860371,2.80643907313245,1.0,0,init,1
2026-01-14 21:26:35.338,0.1640805757548971,0.9014986577176772,0.34862717501835316,0.1705763998203108,0.9540657057007503,0.24544534240432092,0.02046716692892281,2.645719789921194,-0.04469520109091138,2.799069498574785,1.0,0,init,1
2026-01-14 21:26:35.388,0.16753982140596607,0.8930923364969218,0.33504286635917685,0.17468094565418654,0.9555002625299083,0.23690834537518987,0.019500036467281417,2.663573789022648,-0.04551788396640489,2.7910468040657923,1.0,0,init,1
2026-01-14 21:26:35.438,0.1710865921686211,0.8840716818079011,0.32101739044382926,0.17903603901972898,0.9568819176974235,0.2280001285469708,0.018412867739493115,2.682194025273351,-0.04641926794791135,2.782518593105695,1.0,0,init,1
2026-01-14 21:26:35.488,0.17447535488149785,0.8746620304331895,0.30699749930127496,0.18348425792144268,0.9581655282992073,0.21898612588574665,0.017245989205332796,2.701021429568129,-0.04732965741121391,2.773782931776562,1.0,0,init,1
2026-01-14 21:26:35.538,0.17746314247365733,0.8650430046810369,0.29307767564036913,0.1878245901558384,0.9593740636552991,0.2099207300649705,0.016019251146654263,2.7199314229868956,-0.048138231588596765,2.7652308133778103,1.0,0,init,1
2026-01-14 21:26:35.588,0.17982969811366498,0.8553476028150372,0.27948597052506174,0.19194175540234243,0.9605001373388099,0.20095646723371743,0.014640593640236088,2.738647716625115,-0.04903894234717389,2.757136237831128,1.0,0,init,1
2026-01-14 21:26:35.638,0.18143621327040926,0.8455553622469275,0.2660575410191046,0.19576786328585927,0.9615872061095143,0.19196718391712303,0.013175319727319878,2.757400302978089,-0.04984420969842629,2.7496021777777555,1.0,0,init,1
2026-01-14 21:26:35.688,0.18239238938536043,0.8356021593301206,0.2527702706517515,0.19932462019287617,0.9626302982659997,0.1829712326853233,0.011581565304038453,2.776171324082856,-0.05066548512506797,2.742601928420752,1.0,0,init,1
2026-01-14 21:26:35.738,0.1829018764297202,0.825844769573227,0.2400777166927606,0.20263701523170435,0.9635735478210334,0.17425511362406002,0.00997062552895591,2.794350336058489,-0.05142887815902798,2.736060500181337,1.0,0,init,1
2026-01-14 21:26:35.788,0.18324399830472157,0.8150349354912845,0.226322907042461,0.20624705041687424,0.9645098279984983,0.16467069026343684,0.008155345290669393,2.8143268204465457,-0.05221759379796334,2.7288892672122347,1.0,0,init,1
2026-01-14 21:26:35.838,0.18379578807472963,0.8046050543871288,0.21312493707244232,0.20991384584310163,0.9652740984275401,0.1553765861449235,0.006341033528339097,2.8337012240941997,-0.05301455244731524,2.7215578655342196,1.0,0,init,1
2026-01-14 21:26:35.888,0.18530151283711196,0.7942297832111898,0.1998393346100575,0.21413949989899048,0.9658218834968277,0.1459856319373671,0.004534226449830042,2.85326907000548,-0.05379000543578685,2.7130275067934204,1.0,0,init,1
2026-01-14 21:26:35.938,0.18823227647238985,0.7842501841588402,0.18672618102520433,0.2191143602145673,0.9660708903026374,0.1367046996694137,0.0027851653318654843,2.8726121360824908,-0.054553646804372705,2.7029031806273025,1.0,0,init,1
2026-01-14 21:26:35.988,0.19259714233344527,0.7750171526970833,0.1740325206588566,0.22471386324356388,0.9660169160439599,0.12772493129844326,0.0011573711064091663,2.8913219850096312,-0.05519506633883035,2.691428818266424,1.0,0,init,1
2026-01-14 21:26:36.038,0.19837340578602009,0.7670782494535109,0.16207144938293966,-0.23076725129701348,-0.9656555240477899,-0.11939741181315155,0.0003776997884827375,2.9087141898002216,-0.05586453374837219,2.6789780953478526,1.0,0,init,1
2026-01-14 21:26:36.088,0.20575321743273442,0.7613988883441004,0.15146900740532568,-0.23697568569207567,-0.9650040218635565,-0.11228122567999238,0.0016396761052115943,2.923599661587365,-0.056410341679442665,2.6661581037647966,1.0,0,init,1
2026-01-14 21:26:36.138,0.21438885483246659,0.7584167132373378,0.14250395561157042,-0.24297672946964669,-0.9641455610096604,-0.10667216158101145,0.002587675643552584,2.935365570546964,-0.0568581285142522,2.653734175892243,1.0,0,init,1
2026-01-14 21:26:36.188,0.2231927436363303,0.756864025959056,0.13462799818743926,-0.2485388410440408,-0.9632287932008888,-0.10201671880570198,0.003365341789911643,2.9451541970375756,-0.05722464910957219,2.6421950582350506,1.0,0,init,1
2026-01-14 21:26:36.238,0.23174901304919424,0.7567909512891224,0.12740888579239443,-0.25342147590856945,-0.9623655330423986,-0.09804964409090744,0.004050142465275531,2.9535100422375438,-0.05752292361924657,2.6320469170899083,1.0,0,init,1
2026-01-14 21:26:36.288,0.23944405128288515,0.7582197645979681,0.12118277184252418,-0.25727224710154467,-0.9616506236548347,-0.09496179585838878,0.004618032366596748,2.960031542838305,-0.05777607474156725,2.624033433163856,1.0,0,init,1
2026-01-14 21:26:36.338,0.2463022954613526,0.7610897467818972,0.1158641771522646,-0.2605626150147505,-0.9609829248449608,-0.09269810928050465,0.005099249838824332,2.9648719470826816,-0.05814065786293061,2.617193389361891,1.0,0,init,1
2026-01-14 21:26:36.388,0.2520087839511346,0.7647512653063827,0.11118144147985709,-0.26366497976897824,-0.960299404655295,-0.09096547220420292,0.0055780577961265345,2.9686689162184066,-0.05871576161915972,2.610759244536118,1.0,0,init,1
2026-01-14 21:26:36.438,0.25668394377232756,0.7687914089486636,0.10736156183925075,-0.2677916987951392,-0.9592641498036565,-0.08979173472157222,0.006110755564787384,2.9714750126179585,-0.05985034473355229,2.6022312699682537,1.0,0,init,1
2026-01-14 21:26:36.488,0.26010389815278,0.7724466082458109,0.1041796547329881,-0.2751858942329584,-0.9572517957570447,-0.08884476494228931,0.006952041244833124,2.974222269182128,-0.062247551350641965,2.5869623860315287,1.0,0,init,1
2026-01-14 21:26:36.538,0.2629666117326308,0.7757339962972131,0.10174147957261909,-0.28840446618798754,-0.9534021336674778,-0.08820088216284527,0.008236491171525999,2.977056885383501,-0.0666297229105949,2.5595903600967485,1.0,0,init,1
2026-01-14 21:26:36.588,0.2652062570917511,0.7785756950257778,0.10101315453714971,-0.30207465278628914,-0.9491292333403215,-0.08841165559541284,0.009379857020996078,2.9782936840659016,-0.07127957729344449,2.53117131714243,1.0,0,init,1
2026-01-14 21:26:36.638,0.26648046633956646,0.7805816725269806,0.10158847507764374,-0.31184037830100064,-0.9458897132952041,-0.0891429200196316,0.01008804013567958,2.978063124778722,-0.07475066471381162,2.5108042328417763,1.0,0,init,1
2026-01-14 21:26:36.688,0.26692166868758205,0.781330065174774,0.10248679250885107,-0.3152381005322678,-0.9446946901151366,-0.08984321751743138,0.010250790564114813,2.977092035413971,-0.07608513286343864,2.5037192161233315,1.0,0,init,1
2026-01-14 21:26:36.738,0.2671959632095068,0.7817893445472118,0.1030522654600157,-0.31516749787692055,-0.9446770472850008,-0.0902898188987145,0.0101229056170208,2.976153603667794,-0.07611205125396735,2.503880697865331,1.0,0,init,1
2026-01-14 21:26:36.788,0.2675395215499336,0.7823361905442877,0.10362798183897196,-0.31515298243682277,-0.9446365378166022,-0.09077581532186386,0.01000801856962144,2.9751523330964793,-0.07619813285177135,2.5039281806543503,1.0,0,init,1
2026-01-14 21:26:36.838,0.26806867274248075,0.7831458337079578,0.10449977954731543,-0.31510216622748055,-0.9445855148733519,-0.09150005929407048,0.009826956770822471,2.9736517047281006,-0.07630255420500011,2.5040589703343743,1.0,0,init,1
2026-01-14 21:26:36.888,0.2689623401445653,0.784514215623522,0.10594209742774244,-0.31506910624640616,-0.9444748784238691,-0.09278081555086307,0.009506975387858092,2.9710023974385877,-0.07649752322542719,2.504170184587661,1.0,0,init,1
2026-01-14 21:26:36.938,0.2706872200438779,0.7871092473119353,0.1087594562876201,-0.3149779279476333,-0.9442793177330061,-0.09510954346254516,0.008924670853885914,2.9661816871248403,-0.07684518654898213,2.5044361026403603,1.0,0,init,1
2026-01-14 21:26:36.988,0.2731534709976742,0.7909549841783077,0.11299200271723916,-0.3148435364992029,-0.943980257192138,-0.09853805494368126,0.008066801352217753,2.9590819428262316,-0.07735506503350537,2.504823984324047,1.0,0,init,1
2026-01-14 21:26:37.038,0.27630696058330634,0.7954650152279973,0.11809601846909071,-0.31475853024174594,-0.9435799101156442,-0.10263759252579888,0.007038854076957873,2.95059420249546,-0.07797454872183976,2.505122192177324,1.0,0,init,1
2026-01-14 21:26:37.088,0.2797658838336456,0.7994573241205019,0.12288710393404195,-0.3149946148557086,-0.9430865827489846,-0.1064421963031587,0.00601239527198271,2.942695019289955,-0.07847838727478797,2.5047191285616677,1.0,0,init,1
2026-01-14 21:26:37.138,0.284209830937353,0.8024525773691498,0.12719139355406325,-0.31697864160599815,-0.9420378549423362,-0.10983094175612074,0.005136618948471364,2.9358267727062004,-0.07938927204933674,2.500630579893922,1.0,0,init,1
2026-01-14 21:26:37.188,0.2887068060137708,0.8033996164758008,0.12956278827885923,-0.32151781884064334,-0.9402804009543062,-0.11169674427656051,0.00478508800140863,2.9324156669435797,-0.08091189199356301,2.4911409438968857,1.0,0,init,1
2026-01-14 21:26:37.238,0.29406457516557316,0.8021027495751435,0.12989464436139034,-0.3302930509561632,-0.9371975816316015,-0.11199083852422788,0.005024496053096321,2.9327598588026786,-0.08349445992823086,2.472678352839593,1.0,0,init,1
2026-01-14 21:26:37.288,0.30002402733034594,0.7997092967379048,0.12861471135561606,-0.34369476185100917,-0.9324567912685298,-0.11118663742925676,0.005981199758446983,2.936123894151616,-0.08769531018803763,2.444360303559277,1.0,0,init,1
2026-01-14 21:26:37.338,0.3067849500126579,0.7969250833135038,0.12613274914437353,-0.36136462084131915,-0.9259234797894832,-0.10966086786917721,0.007470906030918828,2.9417268421345257,-0.09322506698876393,2.4067575671451005,1.0,0,init,1
2026-01-14 21:26:37.388,0.31338607268071556,0.7940509605854679,0.12273046136951077,-0.37927521176123535,-0.9189653584973974,-0.107566608245006,0.009077908122789594,2.94865570713654,-0.09843816423744242,2.36827919883784,1.0,0,init,1
2026-01-14 21:26:37.438,0.31892113717542714,0.7915846329973167,0.11937198966105186,-0.3935786744493867,-0.9131567296465991,-0.10551098505205234,0.010394525152078551,2.9550301827608334,-0.1022153058897912,2.337265021130882,1.0,0,init,1
2026-01-14 21:26:37.488,0.32239228793342134,0.7899639896810762,0.11670085152436255,-0.40075483202436074,-0.9102058461814581,-0.10391604775946753,0.01106061500434528,2.959307912059754,-0.10360986532250946,2.3215703727452905,1.0,0,init,1
2026-01-14 21:26:37.538,0.3235882307305063,0.7893221422526655,0.11507304143198802,-0.40165305730240963,-0.9099168898723559,-0.10296081845085671,0.01118682030677735,2.961276886846722,-0.10325056426709918,2.319547702236212,1.0,0,init,1
2026-01-14 21:26:37.588,0.3233256910097169,0.7893780029044097,0.1145964862702262,-0.40153537168726783,-0.9099997160033276,-0.1026774638591059,0.011278323159621434,2.961860418453685,-0.10316671856527956,2.319793468694412,1.0,0,init,1
2026-01-14 21:26:37.638,0.3231211598281619,0.7895005880133938,0.11465362239005344,-0.4014160927138927,-0.9100465165507239,-0.10272822134283845,0.011285865670889936,2.961759050251912,-0.1031979234832031,2.3200589853396076,1.0,0,init,1
2026-01-14 21:26:37.688,0.3229063336846214,0.7892329526032034,0.11429503685795916,-0.40144727798598123,-0.9100651548049647,-0.10243039020142634,0.011380341411638044,2.9623883920583203,-0.10313726000193348,2.3199785092817558,1.0,0,init,1
2026-01-14 21:26:37.738,0.3226042342455454,0.7888836241787384,0.11386604108569306,-0.401433076535333,-0.910108740140134,-0.10208758517183224,0.011475675914712548,2.9630965628920123,-0.1030330927075014,2.319993812289769,1.0,0,init,1
2026-01-14 21:26:37.788,0.32251594447555526,0.7889169347872982,0.11391214597763882,-0.40138756082585436,-0.910125969916798,-0.10211389998469275,0.011467184798148695,2.9630360663701274,-0.10302984666822741,2.320094378372292,1.0,0,init,1
2026-01-14 21:26:37.838,0.32250978489602194,0.7889037294462583,0.11387646958984055,-0.4013778968844906,-0.9101336864227416,-0.10208471699075233,0.011452828823134118,2.963077686718389,-0.10297821782095629,2.3201116217168107,1.0,0,init,1
2026-01-14 21:26:37.888,0.3225164791481464,0.7888916494481173,0.11390305711747403,-0.40138931671539596,-0.9101272338018088,-0.10209512391176523,0.011472593100799455,2.9630752843480037,-0.10302497990634532,2.320089698587059,1.0,0,init,1
2026-01-14 21:26:37.938,0.3224791606513004,0.7888733733885542,0.11384100212992823,-0.4013771934873494,-0.91013769396402,-0.10204895874452934,0.011477656260407266,2.9631633789691585,-0.10299474123614266,2.32011319768335,1.0,0,init,1
2026-01-14 21:26:37.988,0.3222922479386445,0.7887743736957374,0.1136747335304025,-0.4013644896426003,-0.9101588200854012,-0.10190176824254782,0.011554146603172694,2.96349474178827,-0.10301381711036768,2.3201382001254074,1.0,0,init,1
2026-01-14 21:26:38.038,0.32160955368972405,0.7881223058604688,0.11284855020728729,-0.401443935582286,-0.9101960572454381,-0.10122875868167182,0.011774649669215107,2.964923251861744,-0.10289127091602042,2.319937156914205,1.0,0,init,1
2026-01-14 21:26:38.088,0.32016792846734693,0.7862400259981303,0.11061854122184739,-0.4030907979112593,-0.9096634667723812,-0.09938849192398609,0.012333431476812737,2.9689532794238893,-0.10274439035237566,2.3162544402584877,1.0,0,init,1
2026-01-14 21:26:38.138,0.3183631883198663,0.7835645487532839,0.1075672189354028,-0.4096075757964334,-0.9070085097413595,-0.09682494629873549,0.01349543927311569,2.975347596981855,-0.1039887346973366,2.301892164545571,1.0,0,init,1
2026-01-14 21:26:38.188,0.3161795858479532,0.780510501414837,0.1041069329436741,-0.4249398264990824,-0.9002189968408748,-0.09374453628197078,0.015616129450575066,2.984526950270492,-0.10799726037126946,2.268037918265941,1.0,0,init,1
2026-01-14 21:26:38.238,0.3139350882670537,0.7772883728868726,0.10049699581707427,-0.447971465063509,-0.8892825080771403,-0.09032093669758698,0.01844764784342297,2.99602427108941,-0.11397937551106466,2.2166342264948278,1.0,0,init,1
2026-01-14 21:26:38.288,0.31175413544696995,0.7742182146727555,0.09710808688725617,-0.4757395753943065,-0.8750209317399769,-0.08685393321073819,0.021601382047738416,3.0087940120663017,-0.12073614863345791,2.153660403893158,1.0,0,init,1
2026-01-14 21:26:38.338,0.3099576423375176,0.771636443252323,0.09429055731229943,-0.5052941588822225,-0.8585241094967667,-0.08368607903902019,0.024714501560134876,3.021618946128946,-0.12735213047734006,2.0853189748315457,1.0,0,init,1
2026-01-14 21:26:38.388,0.3087271519113506,0.7699159896887673,0.09241925886777647,-0.5345225514127109,-0.8407902443779621,-0.08119341451173469,0.027659291929084184,3.0334544563932857,-0.13370880044040961,2.016272007530683,1.0,0,init,1
2026-01-14 21:26:38.438,0.30810267584766365,0.7689520847838928,0.0913945049658722,-0.562653362935501,-0.8223170685749204,-0.07932582588710056,0.030384951127997478,3.044222302009646,-0.13969189071882956,1.9482841330144018,1.0,0,init,1
2026-01-14 21:26:38.488,0.3078762862612374,0.7686382012746563,0.0910270130319463,-0.5889836082876224,-0.8036973144394213,-0.07800023736837187,0.03293780353685216,3.053980606136424,-0.145336884793061,1.8831153269570464,1.0,0,init,1
2026-01-14 21:26:38.538,0.3078032285663467,0.7685916887280428,0.09090783726138765,-0.6134090895157324,-0.7852236290817899,-0.07685090023460885,0.03531402503586831,3.063263952371948,-0.15030620820011595,1.8211615571674555,1.0,0,init,1
2026-01-14 21:26:38.588,0.3077707353461766,0.7685007475653469,0.09042301832533217,-0.6360537809747673,-0.7670271466408608,-0.07548689348237192,0.037505638723573514,3.072630901378645,-0.15417317515489287,1.7622795200447774,1.0,0,init,1
2026-01-14 21:26:38.638,0.30754007039140174,0.7682202751994425,0.08902254075230004,-0.6567201439894014,-0.7495026234362313,-0.07353433697501315,0.03946100893783591,3.0824381492395068,-0.15637171126984245,1.7072010323645836,1.0,0,init,1
2026-01-14 21:26:38.688,0.30714954446774545,0.7676408814651295,0.08661321174831402,-0.6751108170007685,-0.7331479651658984,-0.07095759072495862,0.041042249696706744,3.0923414039801282,-0.1566281832693305,1.6570394405876547,1.0,0,init,1
2026-01-14 21:26:38.738,0.30665876654016333,0.7669462441603916,0.08347604096081201,-0.6905051392273525,-0.7188814673272313,-0.06804448374123,0.04221417850025051,3.101566847398559,-0.15528746597178447,1.6141729419268311,1.0,0,init,1
2026-01-14 21:26:38.788,0.30634877476069133,0.7665068287256948,0.0801620274577455,-0.7025123668858897,-0.7073654695829443,-0.06528274923980652,0.04299569124666519,3.109261149562452,-0.15314918770152572,1.5801615667293571,1.0,0,init,1
2026-01-14 21:26:38.838,0.30612311588516183,0.7661873849954307,0.07702126081627511,-0.7111189962110827,-0.6989108353501576,-0.06283294068217256,0.04342164233556412,3.1152176502563127,-0.1506280574971579,1.5554708723865707,1.0,0,init,1
2026-01-14 21:26:38.888,0.30594905040276915,0.7659093996041237,0.07434501296309245,-0.7155005003872901,-0.6945865376742624,-0.06095379629655721,0.043511037039536085,3.118931258631299,-0.1482113253855935,1.5428176275430394,1.0,0,init,1
2026-01-14 21:26:38.938,0.3058050728581212,0.7657083698230593,0.07240129482311364,-0.7158922200038983,-0.6942997576163901,-0.05974850831878971,0.04331618248866658,3.1204178271631267,-0.146216255487961,1.541726156427314,1.0,0,init,1
2026-01-14 21:26:38.988,0.30581931948828883,0.7656136039193355,0.07146250105686394,-0.7159482706578707,-0.69429559462397,-0.05921666361257707,0.04318666204219874,3.1209852407649628,-0.14527117556733463,1.5415905571338304,1.0,0,init,1
2026-01-14 21:26:39.038,0.3058896633079512,0.7656754603105895,0.07154175880268118,-0.7159385475170523,-0.6942984173805711,-0.05928169204777764,0.043213247852484205,3.1209308612515723,-0.1454016733400979,1.5416135079510183,1.0,0,init,1
2026-01-14 21:26:39.088,0.30587220701666434,0.7656732811259552,0.07156528941039098,-0.7159227897347158,-0.6943149585214649,-0.05928509500939947,0.04320387738993991,3.1209091883787363,-0.14539300356803672,1.5416608090255777,1.0,0,init,1
2026-01-14 21:26:39.138,0.30586968068388104,0.765682067519229,0.07156900387230247,-0.7159159677732386,-0.6943216937081406,-0.05929781249083129,0.04319122789836488,3.1208716227409163,-0.1453934247664093,1.5416827697772046,1.0,0,init,1
2026-01-14 21:26:39.188,0.30587779576177043,0.7656790794614493,0.07155584107055585,-0.7159197644190771,-0.6943185866760506,-0.05929092241769483,0.04318770229085861,3.1208769403465006,-0.14537868991830372,1.541672455517057,1.0,0,init,1
2026-01-14 21:26:39.238,0.3058660513840102,0.7656935468459478,0.07158353512625965,-0.7159145492174293,-0.694321149662625,-0.059310540039760704,0.04320600872757793,3.120874973493782,-0.14543236951205937,1.541684128640972,1.0,0,init,1
2026-01-14 21:26:39.288,0.30587110357742975,0.7656833694303569,0.07155633907747452,-0.7159148205207571,-0.6943219633940109,-0.05929375858839784,0.04321146954083798,3.1209064108747055,-0.14541585261267542,1.5416824592524383,1.0,0,init,1
2026-01-14 21:26:39.338,0.30584350429954,0.7656823053267052,0.07153446138437786,-0.7159084772681339,-0.6943294024048834,-0.05928032839669088,0.043215457846469504,3.120929632732638,-0.14540190490912586,1.5417001880301635,1.0,0,init,1
2026-01-14 21:26:39.388,0.3058659154951144,0.7656676071932031,0.0715581720897498,-0.7159229525668145,-0.694315141442101,-0.05928596057750714,0.043197051180056026,3.1208981103547693,-0.1453847114746835,1.5416615656024037,1.0,0,init,1
2026-01-14 21:26:39.438,0.30586215133462585,0.7656760459811915,0.07156426290986917,-0.7159233533136943,-0.6943132698320316,-0.059294813351275115,0.043208339760575885,3.1209021956358565,-0.1454132498654449,1.5416583110321858,1.0,0,init,1
2026-01-14 21:26:39.488,0.30585748006887736,0.7656729040030459,0.07153898066378517,-0.7159202790900586,-0.6943182539415542,-0.05927126269611281,0.043211499043339485,3.1209390510650943,-0.1453836701996026,1.5416667864277058,1.0,0,init,1
2026-01-14 21:26:39.538,0.30585605777761915,0.7656657631392906,0.07153500824256975,-0.7159194898645053,-0.6943193563424883,-0.05927457069965403,0.04320232295456885,3.1209209493066274,-0.14537558083708935,1.5416707095598203,1.0,0,init,1
2026-01-14 21:26:40.138,0.29502452060472284,0.7499611280870482,0.06076030918946615,-0.7179559198700532,-0.6945951238158541,-0.02695290797271078,0.03674849448071089,-3.1262050644141355,-0.08987358972482183,1.5370313553496082,1.0,0,init,1
2026-01-14 21:26:40.188,0.2920764492127948,0.7457125870673456,0.058483260968690554,-0.7184111671827615,-0.6945347192644828,-0.01708604555647629,0.03485664428126159,-3.1151700510655833,-0.0730328174982501,1.5360375082156599,1.0,0,init,1
2026-01-14 21:26:40.238,0.29082012230526966,0.7438943318258556,0.05769146328384181,-0.7186061805463032,-0.6944725994024845,-0.012584825694300606,0.03397923074547444,-3.1101647129305836,-0.06532881551384453,1.535615176365615,1.0,0,init,1
2026-01-14 21:26:40.288,0.29077401970520567,0.7438095818477318,0.05767621285553737,-0.7186260846048539,-0.6944606318635118,-0.012287313014626084,0.03391169792431569,-3.1098471425516903,-0.06480599832226194,1.5355682006449949,1.0,0,init,1
2026-01-14 21:26:40.338,0.2907251587284453,0.7437496721855579,0.05757953246029324,-0.7186235491220028,-0.6944651458288188,-0.012191908564717767,0.03390742163307758,-3.109721028022875,-0.0646628831660755,1.5355764172502453,1.0,0,init,1
2026-01-14 21:26:40.388,0.2907550190797654,0.7437459542837048,0.05758329526372108,-0.7186338657820768,-0.6944544784585255,-0.012209563209727802,0.03390089772016478,-3.1097540185846295,-0.0646787578349551,1.5355475321964984,1.0,0,init,1
2026-01-14 21:26:40.438,0.29065586537627053,0.7436540194592091,0.05748074950866294,-0.7186257876450741,-0.6944653749056118,-0.012100220028425557,0.03388812570751932,-3.1096213345365773,-0.06450404193674297,1.535572950597503,1.0,0,init,1
2026-01-14 21:26:40.488,0.29064099203307686,0.7436764306717436,0.057509405525800056,-0.7186350350385492,-0.6944535114407333,-0.01213661717969354,0.03392210763222072,-3.1096219288530835,-0.06460317842412647,1.5355414496784174,1.0,0,init,1
2026-01-14 21:26:40.538,0.29063611073766493,0.7436935008784166,0.05752132371609964,-0.7186116899930992,-0.6944760243287271,-0.012154741050569675,0.033949269621316794,-3.109610029602869,-0.06466804934544128,1.5356048920057486,1.0,0,init,1
2026-01-14 21:26:40.588,0.29064001406978274,0.7436902120174622,0.05754606981504906,-0.7186104927509466,-0.6944761311165207,-0.012164089959411453,0.033969073186210015,-3.1095945114123014,-0.06470905591439063,1.5356055518834408,1.0,0,init,1
2026-01-14 21:26:40.638,0.29065819669779697,0.743687917150575,0.0575621684506972,-0.7186225130247538,-0.6944638967414228,-0.012171511897788657,0.033962246610435703,-3.1096135654012023,-0.06470970404468314,1.5355718345969225,1.0,0,init,1
2026-01-14 21:26:40.688,0.29066899987737216,0.7437072308393137,0.057598814271567156,-0.7186307124168946,-0.694453836690952,-0.012201272296148499,0.03398377305065511,-3.10962303393414,-0.06478204360118756,1.5355451026546478,1.0,0,init,1
2026-01-14 21:26:40.738,0.29064435244104764,0.7436940400614926,0.057582753488720606,-0.7186252352159755,-0.6944603895787459,-0.012175131717896946,0.033975061215135924,-3.109599821861619,-0.06473258104486722,1.5355621902128198,1.0,0,init,1
2026-01-14 21:26:40.788,0.290661172634469,0.7436776333612415,0.057560275603706745,-0.7186169165175808,-0.6944702057323127,-0.012166420584190173,0.03395348075016979,-3.1096196818699786,-0.06469046342051157,1.5355892032044105,1.0,0,init,1
2026-01-14 21:26:41.338,0.2904797697974108,0.7436041069955681,0.05222212769470827,-0.7186982638725874,-0.694464043818914,-0.008960733450062945,0.033349701726511013,-3.106031871732752,-0.059235099168736656,1.5354481881810214,1.0,0,init,1
2026-01-14 21:26:41.388,0.290647039868967,0.7438328447052555,0.04882172208875632,-0.7187660350458414,-0.6944344047198855,-0.007023349546399124,0.03296842378652385,-3.1038861502705695,-0.055914236213414154,1.5353103738428655,1.0,0,init,1
2026-01-14 21:26:41.438,0.2905013756544983,0.7436943007978515,0.043665970297461554,-0.7188487838228259,-0.69440103663538,-0.003945090923472314,0.03237379455299658,-3.1004635440723542,-0.05065429979822666,1.5351598116159724,1.0,0,init,1
2026-01-14 21:26:41.488,0.2898116137802063,0.7426428943220518,0.03630334430263199,-0.7189832845009051,-0.6943123590832337,0.0007143326814639279,0.03150990893965586,-3.0952315870778704,-0.04274126411884676,1.5348961608401017,1.0,0,init,1
2026-01-14 21:26:41.538,0.28884161721827073,0.741273369651695,0.027466910870844963,-0.7191291366064679,-0.6941802310747675,0.006319357465054532,0.030449259265992096,-3.088971958031211,-0.03319177370421321,1.5346207709644517,1.0,0,init,1
2026-01-14 21:26:41.588,0.28780556800496704,0.7397632184408078,0.01801224663463763,-0.7192482234271507,-0.6940248985164795,0.012280796458456299,0.029336246767844097,-3.082295715638968,-0.023056332017163533,1.5344213954803045,1.0,0,init,1
2026-01-14 21:26:41.638,0.28704912298110746,0.7387696967481515,0.008918817083028302,-0.7193107207305568,-0.6938829461941508,0.017863179137047158,0.02827456196176993,-3.0760734835119026,-0.013540533957012182,1.5343702057940296,1.0,0,init,1
2026-01-14 21:26:41.688,0.2868357785580006,0.7383510166274803,0.0015242847602735254,-0.7194031564970248,-0.6936943072289664,0.02223347923920944,0.02744046175196581,-3.071205261075659,-0.006080951397752729,1.534199720779862,1.0,0,init,1
2026-01-14 21:26:41.738,0.2870565364311351,0.7386169204020622,-0.003623371965750799,-0.7194300740716653,-0.6935909109268773,0.025056817502972156,0.02691045702855275,-3.0680475662942213,-0.0012764410100759495,1.5341805072522343,1.0,0,init,1
2026-01-14 21:26:41.788,0.2871955350544972,0.7388979073316266,-0.0070768666247449374,-0.7194259080355806,-0.6935386517855209,0.02691564045669485,0.026571594335086674,-3.065953756484278,0.0018707638211412365,1.534228740183161,1.0,0,init,1
2026-01-14 21:26:41.838,0.2870520120707083,0.738597329036827,-0.009276564434236023,-0.7194530947861323,-0.6934665288498677,0.028254389577010413,0.026326929885633413,-3.0644465632984836,0.004141738520037134,1.5341761027844967,1.0,0,init,1
2026-01-14 21:26:41.888,0.28685025424268396,0.7383698550015357,-0.010204983809204038,-0.7194477539174363,-0.6934512713183015,0.02887423377592444,0.026201952485277458,-3.06376543566875,0.005207474284309256,1.5342044395626733,1.0,0,init,1
2026-01-14 21:26:41.938,0.28686618060882735,0.7383349489904942,-0.01017324169071479,-0.7194442289328415,-0.6934561443958821,0.02886016605735231,0.026185264366979755,-3.0638089933869437,0.005209918465174144,1.534216339854181,1.0,0,init,1
2026-01-14 21:26:41.988,0.28686321528580094,0.7383162531862933,-0.010174449077791886,-0.7194652233217947,-0.6934332236686307,0.02888491330568885,0.02618813713065207,-3.063770631656841,0.005243956533411529,1.5341555728312886,1.0,0,init,1
2026-01-14 21:26:42.038,0.28687551061086264,0.7383014756333409,-0.010173477879622611,-0.7194690626883299,-0.6934298313165248,0.02887995918980555,0.026177945524952378,-3.06379222490605,0.005251361774297468,1.5341455827596004,1.0,0,init,1
2026-01-14 21:26:42.088,0.2868953090379917,0.7383024567632326,-0.010180511691653099,-0.7194768854286716,-0.6934218252186479,0.028872667870597328,0.026183061210089478,-3.0637950438332218,0.005234646025060042,1.5341225214324488,1.0,0,init,1
2026-01-14 21:26:42.138,0.2868620737811731,0.7383702849994785,-0.010144681900538993,-0.7194419242415003,-0.6934593378711799,0.028834853539612872,0.02619189921142123,-3.06383458559546,0.0051639938132355566,1.5342222899732425,1.0,0,init,1
2026-01-14 21:26:42.188,0.28673197754285235,0.7385597576973038,-0.010103346815207553,-0.7193439259630043,-0.6935628029953561,0.028776519298458873,0.02620813649273783,-3.0638915281163044,0.0050464729406647455,1.5345027970414757,1.0,0,init,1
2026-01-14 21:26:42.238,0.2874213949440065,0.7395555015397695,-0.009498859939465337,-0.7193337173377614,-0.6935973046443673,0.0280731914730968,0.026337767779772665,-3.064682012946299,0.003852386403750068,1.5345187511016265,1.0,0,init,1
2026-01-14 21:26:42.288,0.28961959171591,0.7430240351095236,-0.007380631714033803,-0.7192263027198972,-0.6937861988448143,0.02563181611078082,0.026781444531498905,-3.0674348596423613,-0.00029104053956610355,1.5347810993125977,1.0,0,init,1
2026-01-14 21:26:42.338,0.29310206778847614,0.7489569765594218,-0.0037144004809844255,-0.7189342714690008,-0.6941992895585632,0.02147985141967962,0.027558586079688304,-3.072086593051795,-0.007377166006060429,1.5355361368709335,1.0,0,init,1
2026-01-14 21:26:42.388,0.29699665624209426,0.7556954014294462,0.0002667934468476574,-0.7185580940319093,-0.6946807896548909,0.016894690056213895,0.02841540838333337,-3.077231722200583,-0.015200229417168785,1.5365193162894957,1.0,0,init,1
2026-01-14 21:26:42.438,0.29979073150623825,0.7611754054471213,0.002825782875852806,-0.7181219349430373,-0.6951777098098396,0.013628730739733946,0.029036116056359095,-3.0808905386458774,-0.02079783966335835,1.5376987087267353,1.0,0,init,1
2026-01-14 21:26:42.488,0.3004196007294403,0.7641792637407588,0.0026546657562040166,-0.7175944450628581,-0.6957308594247619,0.012827174724437552,0.0291932740130265,-3.081795895483682,-0.022213731429515545,1.5391952025811355,1.0,0,init,1
2026-01-14 21:26:42.538,0.29893706690148275,0.7648250763922111,-0.0002795897167852668,-0.7169149119618453,-0.6964130901674226,0.014443627795223351,0.02886517739966211,-3.0800368817833372,-0.019495705456524577,1.5411859949638727,1.0,0,init,1
2026-01-14 21:26:42.588,0.29670789867850866,0.7645122089476962,-0.004731494314032719,-0.7162423244565328,-0.6970638521503101,0.017247690855658294,0.0283096422199425,-3.0769419766064177,-0.014760740142215184,1.543180802554869,1.0,0,init,1
2026-01-14 21:26:42.638,0.29511886829587014,0.7639589175685165,-0.009538002582083704,-0.7158579127222052,-0.6974013253960036,0.020206280390938837,0.027758716859175823,-3.0736106800869294,-0.009788436758661583,1.5443457804915812,1.0,0,init,1
2026-01-14 21:26:42.688,0.2947110264041559,0.7630764871122698,-0.013759392698055345,-0.715959638172628,-0.6972360149322308,0.022785247358875552,0.027286782366864232,-3.0706863505813695,-0.005424046482244362,1.5441072219078285,1.0,0,init,1
2026-01-14 21:26:42.738,0.29431854832567833,0.7623929567530756,-0.016878529515424484,-0.715999817281663,-0.6971436533620602,0.024718231228042144,0.02690719744942072,-3.068532096303816,-0.002119867365361731,1.5440336007674744,1.0,0,init,1
2026-01-14 21:26:42.788,0.2940508815928674,0.7620631480923737,-0.018386950784427453,-0.7160089219943757,-0.6971069656466394,0.025668533539592756,0.026725052989916186,-3.067466600005537,-0.0005026431565371465,1.544027116768433,1.0,0,init,1
2026-01-14 21:26:42.838,0.2940850798969139,0.7621266865467388,-0.018352766329934322,-0.7159919412264104,-0.6971258970382943,0.025614567998396183,0.026737944641381958,-3.067523468754041,-0.0005997787924323546,1.5440743867456392,1.0,0,init,1
2026-01-14 21:26:42.888,0.2940937175127758,0.7621149398612664,-0.018273302097110228,-0.7160001325149612,-0.6971184491048829,0.02557531440168809,0.026750354192339953,-3.0675604685857407,-0.000672473904384208,1.5440495893912585,1.0,0,init,1
2026-01-14 21:26:42.938,0.29411673721915016,0.7621389230743932,-0.018242887047314527,-0.7160053399219161,-0.6971139318473022,0.02555303376001293,0.02674998492253806,-3.06759209917584,-0.0007033571436577254,1.5440347089357234,1.0,0,init,1
2026-01-14 21:26:42.988,0.2941087730919087,0.7621181242584294,-0.018276122455096966,-0.7160054850133993,-0.6971140289182126,0.025563115683316453,0.026733934104536727,-3.0676010412357098,-0.0006665389876762965,1.544036011453343,1.0,0,init,1
2026-01-14 21:26:43.038,0.2940707626352442,0.7620779269551784,-0.018294380975530655,-0.7159937972783919,-0.6971248826055791,0.025604738803110386,0.026724102638838353,-3.067557039646271,-0.0005944055367608444,1.5440705498243232,1.0,0,init,1
2026-01-14 21:26:43.088,0.2940328834508503,0.7620267546509599,-0.018355388771425313,-0.7159997484131514,-0.6971168818113267,0.02566473254901022,0.02671581683468404,-3.0674851580961073,-0.0004962097776738424,1.5440543870901262,1.0,0,init,1
2026-01-14 21:26:43.138,0.29404044929181716,0.7619906161618721,-0.018365612993111624,-0.7159972967912889,-0.6971192641250763,0.025678676797063493,0.02670595684919564,-3.0674798312109854,-0.00046274764570041475,1.5440624653138015,1.0,0,init,1
2026-01-14 21:26:43.188,0.29398653179589984,0.7619315582432453,-0.018422091241666994,-0.716007315449675,-0.6971070190823274,0.025743746947718575,0.026694337635407208,-3.0674056416041227,-0.00035219799476962654,1.5440350041022965,1.0,0,init,1
2026-01-14 21:26:43.238,0.29398626952817314,0.7619123467519259,-0.018448226686595154,-0.7160100923829481,-0.6971034366241264,0.025755398631173217,0.02670216646536484,-3.0673781463996077,-0.0003460933170078984,1.5440262117116634,1.0,0,init,1
2026-01-14 21:26:43.288,0.29390987383818123,0.7618421177085875,-0.01852615545188882,-0.7159902981049036,-0.6971216806739835,0.02583092309242898,0.02668367977107032,-3.067299222100895,-0.00021416272824083125,1.544084898366921,1.0,0,init,1
2026-01-14 21:26:43.338,0.293901339591069,0.761838035819838,-0.018520658678528923,-0.715991435405381,-0.697120211873971,0.025833021745060122,0.026689503750560922,-3.067287940215905,-0.00021914038035025175,1.5440810180779418,1.0,0,init,1
2026-01-14 21:26:43.538,0.29126930355891123,0.7580470072092461,-0.021657644622822075,-0.7160206336365742,-0.6969893529176283,0.029003403171530346,0.026059484465628596,-3.0637646696286716,0.0052077273421251855,1.5440634913229359,1.0,0,init,1
2026-01-14 21:26:43.588,0.28965561700217907,0.7556944405602213,-0.023527837887946906,-0.7160502381160722,-0.6968904770183832,0.030916976187354433,0.02568774257183959,-3.0616256645922104,0.00847323136256656,1.5440165575669405,1.0,0,init,1
2026-01-14 21:26:43.638,0.2878173289364486,0.7530636705574816,-0.025624337044890283,-0.7160444431009227,-0.6968122938084099,0.033080436069004494,0.02527187075061965,-3.059200110724676,0.0121549236889166,1.5440745491776917,1.0,0,init,1
2026-01-14 21:26:43.688,0.2862054459841278,0.7506811113249527,-0.027507190421723227,-0.7160435878650289,-0.6967321627256435,0.03502406557531616,0.024883499183195417,-3.0570416997965704,0.015483865450430442,1.544114746587513,1.0,0,init,1
2026-01-14 21:26:43.738,0.28494426137354,0.7488624572222784,-0.029217838535937374,-0.7160542108092389,-0.6966496723767203,0.03664618991874032,0.024549092125905645,-3.055254952595827,0.018278100964543454,1.5441161239867265,1.0,0,init,1
2026-01-14 21:26:43.788,0.28429029469073713,0.7479160713506467,-0.031026125478131356,-0.7160481598295003,-0.6965927926221602,0.037995395596988335,0.024287115618674707,-3.0537450057963778,0.02057805909945536,1.5441578748265403,1.0,0,init,1
2026-01-14 21:26:43.838,0.2839708451322026,0.7474670955565199,-0.03379302477548865,-0.7160362448793027,-0.6965234982488122,0.03965832763432625,0.023965171721332945,-3.051882042678707,0.0234111279814636,1.5442214506615157,1.0,0,init,1
2026-01-14 21:26:43.888,0.28342280476405945,0.7467076567886434,-0.0385269234036254,-0.7160174435572974,-0.6963940140955901,0.042500376064400484,0.023411870661864547,-3.048701459427166,0.028258008655039257,1.5443244776931664,1.0,0,init,1
2026-01-14 21:26:43.938,0.28321574532151406,0.7464627544896567,-0.04530196520086746,-0.7159879969171445,-0.6962104013895682,0.04622854782425182,0.022697723093129427,-3.044510022274138,0.03460029228793828,1.544469533424667,1.0,0,init,1
2026-01-14 21:26:43.988,0.2840442993546177,0.747826440181645,-0.05304804231596481,-0.7159134744876409,-0.6960652363215982,0.049767559143263605,0.02200622385856527,-3.040545475790672,0.040634178717410326,1.5447391178891448,1.0,0,init,1
2026-01-14 21:26:44.038,0.28646467911663387,0.751407999433799,-0.060187631393571764,-0.7158648345423425,-0.6959640378956512,0.052024480501005395,0.021565019133904458,-3.0380156667217966,0.044482704949818375,1.5449128130693588,1.0,0,init,1
2026-01-14 21:26:44.088,0.2899297258367394,0.7565147687550264,-0.06602930920709828,-0.7158426908212091,-0.695925077025243,0.05291029081351237,0.021401642256848406,-3.0370081574235073,0.04597920979219681,1.5449886134316444,1.0,0,init,1
2026-01-14 21:26:44.138,0.29267566256576527,0.7604731676527388,-0.07078900745971754,-0.7158383612176594,-0.6958769710930699,0.05365272977344363,0.021261850799228224,-3.036168590613448,0.04723966758174397,1.5450114562466744,1.0,0,init,1
2026-01-14 21:26:44.188,0.2933126253082964,0.7615011797320049,-0.07554073793588394,-0.7157824956812492,-0.6957915385947598,0.05561795342469718,0.020885328656923222,-3.03395181338775,0.05057860732974672,1.5451992448699516,1.0,0,init,1
2026-01-14 21:26:44.238,0.2923265065872106,0.7600808493885467,-0.07989807062205691,-0.7157338960088064,-0.6956282679344574,0.058417599405063754,0.020339297783142127,-3.0308079254790856,0.05535399476634874,1.5453772670052595,1.0,0,init,1
2026-01-14 21:26:44.288,0.29166669488101177,0.759121228853587,-0.08232117429595212,-0.7157046100053422,-0.6955286477647313,0.06005550941580842,0.020003678273581404,-3.0289906938522333,0.05817054811318612,1.5454843432846184,1.0,0,init,1
2026-01-14 21:26:44.338,0.291541011671769,0.7589528194254664,-0.08270593468711868,-0.7156984230311259,-0.6955124178592703,0.06032851947668172,0.019967814403768335,-3.028658894871667,0.05861187973610426,1.5455043112790467,1.0,0,init,1
2026-01-14 21:26:44.388,0.29153190819488983,0.7590159103910876,-0.08259046108884438,-0.7156789033383752,-0.695538992576735,0.06025325759184047,0.019969027800384453,-3.0287609950816554,0.05849885494348092,1.5455603754884144,1.0,0,init,1
2026-01-14 21:26:44.438,0.2908790007992136,0.7584214090705845,-0.08307443604152205,-0.7155967082717571,-0.6955775593998367,0.06081281317047186,0.019874901868580312,-3.028104446946256,0.05942078765827284,1.5458022960845768,1.0,0,init,1
2026-01-14 21:26:44.488,0.28933188242774294,0.75712732567769,-0.08411520174504843,-0.7153221763953175,-0.6957633129209407,0.061990302267833655,0.019616288514551453,-3.0267995802422587,0.06142811308514834,1.546607119167313,1.0,0,init,1
2026-01-14 21:26:44.538,0.2870168829926151,0.7557831240484856,-0.08533558777380595,-0.7148006339887559,-0.6961809781060343,0.06339460818775976,0.01931898095963162,-3.0252073439096225,0.06377321719691438,1.5481219561531068,1.0,0,init,1
2026-01-14 21:26:44.588,0.28439937957967737,0.7548724515967046,-0.0863535626355131,-0.7140375810743401,-0.6968632330270229,0.06457878971352903,0.01901439422558999,-3.0239081873002247,0.06576990747247488,1.550328218708118,1.0,0,init,1
2026-01-14 21:26:44.638,0.2824320129283691,0.7549616841741561,-0.0867053918436595,-0.7132909195992567,-0.6975913315912674,0.06501315909375607,0.018859672601052625,-3.0234474998064327,0.06648286840392406,1.5524755840456979,1.0,0,init,1
2026-01-14 21:26:44.688,0.2811550098930457,0.755570148730985,-0.08661332936780379,-0.7126685217333042,-0.6982368372902156,0.06492136785572108,0.018817895131130198,-3.023577355364696,0.06630470739888303,1.5542581643109785,1.0,0,init,1
2026-01-14 21:26:44.738,0.2803352629347381,0.7558383713137891,-0.08667336904215357,-0.7123155429467216,-0.698591591362427,0.06498786992518377,0.018786498258492414,-3.02349501658404,0.06638430743488132,1.5552687722915854,1.0,0,init,1
2026-01-14 21:26:44.788,0.2802112036985318,0.7558687053710008,-0.08668231919178877,-0.7122534938336622,-0.6986552278236722,0.06498993814137213,0.018765422904233404,-3.023516231102557,0.06640629499070892,1.5554475342341623,1.0,0,init,1
2026-01-14 21:26:44.838,0.2801059780910592,0.7558216294213259,-0.08689954254326192,-0.712222360430893,-0.6986751579415738,0.06512524789823411,0.018735929754281656,-3.0233645551219888,0.06663596176978029,1.5555384218798596,1.0,0,init,1
2026-01-14 21:26:44.888,0.27993347639953153,0.7555682360964486,-0.08766226936074416,-0.712211241950896,-0.698642075045839,0.0656289413293093,0.018634373464133998,-3.0227980759266,0.06749706438754996,1.5555768989365617,1.0,0,init,1
2026-01-14 21:26:44.938,0.27965696875326707,0.7551698635965839,-0.08908246310649276,-0.7121799499720112,-0.698595843718371,0.06650735447689846,0.018448246468569723,-3.0218216405465355,0.06900943307205751,1.5556785309661458,1.0,0,init,1
2026-01-14 21:26:44.988,0.27922444905525634,0.7545684210626723,-0.09133279869642455,-0.7121433794737703,-0.6985067701781338,0.06789407009102612,0.018179503113793963,-3.0202451875514824,0.0713641720569508,1.555800221429494,1.0,0,init,1
2026-01-14 21:26:45.038,0.27860426034604524,0.7536542285396888,-0.09448913880044804,-0.7120953200917116,-0.6983715869060826,0.06986796855304336,0.017772132005853154,-3.01803583625711,0.074751800096207,1.5559631739510928,1.0,0,init,1
2026-01-14 21:26:45.088,0.27800626488187646,0.7527417227485286,-0.0977925704805853,-0.7120472292630619,-0.6982245048039782,0.07189826337279513,0.017375957930784582,-3.0157296639069946,0.0782049719941546,1.5561245973913658,1.0,0,init,1
2026-01-14 21:26:45.138,0.2774423450061371,0.7519093009779264,-0.10142065205089529,-0.7119947836677133,-0.6980653612198332,0.0740384970641579,0.016925733291972427,-3.013343270820474,0.08189100919289827,1.55630113986607,1.0,0,init,1
2026-01-14 21:26:45.188,0.27772925861945624,0.7524234362466243,-0.1031833284274376,-0.7119473978183292,-0.6980870333914139,0.07429558960139762,0.016898577344431377,-3.0130133943387145,0.08228858478822093,1.5564379308775167,1.0,0,init,1
2026-01-14 21:26:45.238,0.2786454356629267,0.7536858522084718,-0.10281762077596794,-0.7119976649072896,-0.698118367642505,0.07347950222324977,0.01705381716082264,-3.013950542715321,0.0809115567912249,1.5562853306626603,1.0,0,init,1
2026-01-14 21:26:45.288,0.279785207763554,0.755273420098144,-0.10175856197683747,-0.7120439712512575,-0.6981966021218394,0.07221905976463215,0.01730015020076232,-3.0153844275860093,0.07876991205613951,1.5561385290655785,1.0,0,init,1
2026-01-14 21:26:45.338,0.2805498187478779,0.7563913361340422,-0.10104555124902108,-0.7120818643875492,-0.6982419104103099,0.0713653790361132,0.017453814252043395,-3.0163746755594976,0.0773390905451931,1.5560211908867736,1.0,0,init,1
2026-01-14 21:26:45.388,0.2806341792975109,0.7565066810093494,-0.10099775375375292,-0.7120902776154078,-0.6982390204199567,0.07130381531373607,0.017477780473948566,-3.016428372505326,0.0772188873445947,1.5559956108535182,1.0,0,init,1
2026-01-14 21:26:45.438,0.28059407022813543,0.7564191606630418,-0.10104822083535996,-0.7120711291919815,-0.6982529048081668,0.07136654689282104,0.01744717406368904,-3.016381290825607,0.07734813781699851,1.556052317623947,1.0,0,init,1
2026-01-14 21:26:45.488,0.2806601101716395,0.7563878847483914,-0.10107949292484682,-0.712099185284503,-0.6982224133314557,0.07138683012441287,0.017439389998883392,-3.0163668355061013,0.07739309819657812,1.555972649042483,1.0,0,init,1
2026-01-14 21:26:45.538,0.2808961215904272,0.7563360848190673,-0.10105515074339752,-0.7121916510539789,-0.6981335132299313,0.07133543452775996,0.017432890035116243,-3.0164587786936736,0.07734512574597502,1.5557089432562181,1.0,0,init,1
2026-01-14 21:26:45.588,0.28114200053842964,0.7562137918494156,-0.10114832133619216,-0.7123132829009499,-0.6980036873170113,0.07139231678452404,0.017429188129842503,-3.0163972151533667,0.07745353396635689,1.555361462472814,1.0,0,init,1
2026-01-14 21:26:45.638,0.28140345752809004,0.7559523153622953,-0.10160646366625199,-0.712464538839227,-0.6978233848599296,0.07165568539898666,0.0173858330039108,-3.016104207818997,0.07791860877028528,1.5549315551249072,1.0,0,init,1
2026-01-14 21:26:45.688,0.2816450583448683,0.7558766308974413,-0.10225241496267484,-0.7125734668576292,-0.697692343841056,0.07185043135145468,0.017377088095613703,-3.015854153701653,0.07822946696336353,1.5546203337150253,1.0,0,init,1
2026-01-14 21:26:45.738,0.2818660676556982,0.7561730495741471,-0.1021678605903241,-0.712589019290051,-0.6977257259018267,0.07134330156529553,0.017488119503701136,-3.016412869451081,0.07735019347956128,1.5545692076542343,1.0,0,init,1
2026-01-14 21:26:45.788,0.2818725326852586,0.7561767163605719,-0.10216550110972575,-0.7125750876373282,-0.6977409779827409,0.07133391052244578,0.017485574966753934,-3.016428196749914,0.07733780232390683,1.5546092358450077,1.0,0,init,1
2026-01-14 21:26:45.838,0.2818646335914148,0.7561755282756484,-0.10216473172839893,-0.7125861671739442,-0.6977292967938081,0.07133795907494543,0.01748365931339772,-3.0164264364428446,0.07734826590249601,1.5545776779995417,1.0,0,init,1
2026-01-14 21:26:45.888,0.2818577373619498,0.7561671216912198,-0.10215356941179422,-0.712582686353372,-0.697732531883051,0.07133802806968774,0.01749613707673166,-3.0164081940083687,0.07733028845891805,1.5545867774870745,1.0,0,init,1
2026-01-14 21:26:46.988,0.2881857398749816,0.7592475899625052,-0.09928768038613556,-0.7142266334249028,-0.6963648855676913,0.06796305009627189,0.018365349886055655,-3.020095521807048,0.07156514339573067,1.5498271795542664,1.0,0,init,1
2026-01-14 21:26:47.038,0.2879405931076962,0.7589595350816635,-0.09950387288213697,-0.7141943060674134,-0.6963752949618278,0.06821743306731251,0.018284517314382246,-3.019849908840689,0.07203752140815087,1.5499250232739203,1.0,0,init,1
2026-01-14 21:26:47.088,0.28758893669050284,0.7584083505466355,-0.0998850851251365,-0.7141979367991251,-0.6963298961503284,0.06866164699429399,0.018208817401929298,-3.019333730461283,0.07278156424800747,1.5499190355932515,1.0,0,init,1
2026-01-14 21:26:47.138,0.2873360465279326,0.7579834825332145,-0.10018939433314077,-0.7141977526119674,-0.6963000497175964,0.068987110461754,0.01812703829712775,-3.0189927693808483,0.07336295353248332,1.5499246349978313,1.0,0,init,1
2026-01-14 21:26:47.188,0.28733564208722207,0.7580270890653971,-0.10020182606018609,-0.7141849466807403,-0.6963144801871705,0.06897019585792341,0.018141628913038062,-3.018994394341789,0.07331605779346938,1.5499603355375875,1.0,0,init,1
2026-01-14 21:26:47.238,0.28733655330697055,0.7580017257046259,-0.10022706888805522,-0.7141863513987343,-0.6963099573489021,0.06900430774093451,0.018130203686895864,-3.0189628770130006,0.0733812263697762,1.5499570423719715,1.0,0,init,1
2026-01-14 21:26:47.288,0.2872735759423366,0.7579137554620822,-0.10039301039976362,-0.7141874561113456,-0.6962967490872471,0.0691318461405873,0.018108080873755854,-3.018815219775845,0.0735954166136769,1.549955156658116,1.0,0,init,1
2026-01-14 21:26:47.338,0.2870707411885081,0.757608193264272,-0.10099461925500133,-0.7141765107545475,-0.6962676870372619,0.0695600470457173,0.018017195376608508,-3.018341594083996,0.07433516172747025,1.549991961476169,1.0,0,init,1
2026-01-14 21:26:47.388,0.28656618817143875,0.7569005388913784,-0.10251414710627357,-0.7141488777762715,-0.6961970639518733,0.07059315721206193,0.017822308226392577,-3.0171637014238026,0.07608576005860603,1.5500824132914859,1.0,0,init,1
2026-01-14 21:26:47.438,0.2865443896832134,0.7569026278383924,-0.10343049689693884,-0.7141347765399062,-0.6961695246609183,0.07102257038742278,0.017756924431127346,-3.0166514289968043,0.07679116475412319,1.5501263702276356,1.0,0,init,1
2026-01-14 21:26:47.488,0.2866377594717595,0.7570344782233867,-0.10343910118696431,-0.7141328046503778,-0.6961762534122166,0.0709738517670365,0.01776721341306836,-3.016705064806642,0.07670648740449952,1.5501314221060822,1.0,0,init,1
2026-01-14 21:26:47.538,0.2866454464835531,0.7570546177128312,-0.10342150116422003,-0.7141342883980137,-0.6961754805881385,0.0709683664098421,0.01775976720723942,-3.016723566031386,0.0767092668226356,1.550127696662774,1.0,0,init,1
2026-01-14 21:26:47.588,0.28662514378166243,0.7570327365839967,-0.10347366950192972,-0.7141324223704753,-0.6961746483641552,0.07099467945018487,0.017762257291448542,-3.0166827960019638,0.0767432464169698,1.5501328124446403,1.0,0,init,1
2026-01-14 21:26:47.638,0.286635867665508,0.7570456042529112,-0.10342461375459433,-0.7141477740133269,-0.6961611438121278,0.07097114009753736,0.017768398668874683,-3.016708827955262,0.07670361741974756,1.5500884459823732,1.0,0,init,1
2026-01-14 21:26:47.688,0.2866316536976882,0.75705597374194,-0.10341831166334321,-0.7141267710629126,-0.6961827259994918,0.07096733692942611,0.017782124741443917,-3.016692295819504,0.07667524225359164,1.5501476977357116,1.0,0,init,1
2026-01-14 21:26:47.738,0.28661933296025766,0.7570416897316685,-0.10340980566291659,-0.7141295237156706,-0.6961797101418477,0.07096694756362758,0.017791202824533642,-3.016680194233664,0.07666250672531724,1.5501391821917474,1.0,0,init,1
2026-01-14 21:26:47.788,0.28661327634022665,0.7570351426171049,-0.10342521049464487,-0.7141344206187742,-0.6961720326494911,0.07099407187006253,0.017786849172125863,-3.016648786941438,0.07670841244112687,1.5501253876963292,1.0,0,init,1
2026-01-14 21:26:47.838,0.28659950800729567,0.7570243709573174,-0.10342941057320765,-0.7141375180642039,-0.6961687323105465,0.07099553184855877,0.017785834356749755,-3.0166485203147206,0.0767124798245997,1.5501165776768746,1.0,0,init,1
2026-01-14 21:26:47.888,0.28662658797097473,0.7570487248598632,-0.10338619653795918,-0.7141384962466623,-0.6961712725309438,0.07095706568748991,0.017800626680642504,-3.016681632566531,0.0766367696020138,1.5501128387842809,1.0,0,init,1
2026-01-14 21:26:47.938,0.2866245357146788,0.7570631892604659,-0.10335480066392527,-0.7141280314486952,-0.696183547033373,0.07094213141507909,0.01779993060459419,-3.0167024876672026,0.07661442116276562,1.550142911390187,1.0,0,init,1
2026-01-14 21:26:47.988,0.2866171105156132,0.7570301622144331,-0.10338045928694116,-0.7141339556841362,-0.6961749303510928,0.07096723339863543,0.0177991986708131,-3.0166688705094025,0.07665255184684652,1.5501259270072134,1.0,0,init,1
2026-01-14 21:26:49.438,0.2902633203930713,0.7626020406583187,-0.10107051186245003,-0.71435416506148,-0.6969144041869513,0.05998155180077564,0.020264588316403456,-3.0286100218817555,0.05748242635000234,1.5493341803666,1.0,0,init,1
2026-01-14 21:26:49.488,0.2917440039153248,0.765217193500762,-0.10026006524280826,-0.7144272514952533,-0.6972177860170123,0.054858955917289266,0.0217153433806296,-3.0337336716766274,0.0481233912846952,1.5490136806899157,1.0,0,init,1
2026-01-14 21:26:49.538,0.29156599020503726,0.7654090717896558,-0.10055859103178798,-0.7144362438568893,-0.6972833376309476,0.0536255293527821,0.022385332866398787,-3.034507712239124,0.0454218213001351,1.5489315359539202,1.0,0,init,1
2026-01-14 21:26:49.588,0.29047217331909,0.7639411639318429,-0.10160448281840002,-0.7144113116567553,-0.6972189057727262,0.05482587459943313,0.02228000638159973,-3.0329725665448923,0.047285986291793515,1.549010411858273,1.0,0,init,1
2026-01-14 21:26:49.638,0.2893242298824197,0.762207445872476,-0.10272148380340265,-0.7144086675093507,-0.6971255305088924,0.05614027299673477,0.0220118206439494,-3.0315111496764646,0.04954445755261635,1.5490393861157787,1.0,0,init,1
2026-01-14 21:26:49.688,0.2886045371609892,0.7610699191233984,-0.10347416200658464,-0.7144310760089163,-0.697038734355247,0.05698742167726212,0.02185575923539333,-3.0305468479167565,0.05098062891198812,1.5489873922547,1.0,0,init,1
2026-01-14 21:26:49.738,0.28816948930278874,0.7605461492619593,-0.10382641385789726,-0.7144029795316855,-0.6970406661729781,0.057337165654280285,0.021797751538048863,-3.0301368068416563,0.05155868547916999,1.549072233942129,1.0,0,init,1
2026-01-14 21:26:49.788,0.2882703295500503,0.7606456581241788,-0.10378784480549078,-0.7144102570312225,-0.6970505942126851,0.05711221531788096,0.021832283843184693,-3.030403725049241,0.05118904433379824,1.5490488003766836,1.0,0,init,1
2026-01-14 21:26:49.838,0.2881899284294951,0.7605820142175831,-0.10384407233491467,-0.7143936516968818,-0.6970614800093121,0.0571842536605361,0.02183952004301066,-3.030291079173431,0.05127963045873874,1.5490955915271802,1.0,0,init,1
2026-01-14 21:26:49.888,0.2881629003534667,0.7604869684506589,-0.10391010174431817,-0.7144003499925542,-0.697050562788627,0.05724713397080595,0.021804093622604784,-3.0302539101734927,0.051420290236945956,1.5490793608994586,1.0,0,init,1
2026-01-14 21:26:49.938,0.2881498385306297,0.7604888907797352,-0.10391989994480981,-0.7143971653219128,-0.697059870127032,0.057158758465417514,0.02184270974931898,-3.0303225617830627,0.05123917526521685,1.5490853014417327,1.0,0,init,1
2026-01-14 21:26:49.988,0.28813367941807877,0.7604921288375865,-0.10395544502287601,-0.7143915814553875,-0.6970729691109575,0.05706384999370042,0.021855459372909655,-3.030437143489899,0.051084383692922,1.5491003385056754,1.0,0,init,1
2026-01-14 21:26:50.038,0.288128004200388,0.7604374044632813,-0.10400561563585639,-0.7144265650712377,-0.6970369499524804,0.057062931801827754,0.021863104437292637,-3.0304300649093525,0.05107797261464266,1.5489995514489,1.0,0,init,1
2026-01-14 21:26:50.088,0.28807248336663793,0.7604027511608381,-0.10401462489850094,-0.7144019156102646,-0.6970609161982546,0.057079299380595146,0.021861739717018616,-3.0304072470761794,0.051099428160123826,1.5490701955328554,1.0,0,init,1
2026-01-14 21:26:50.138,0.2880455142138592,0.7603718658710706,-0.10408299509531357,-0.7143891983264402,-0.6970726170419508,0.05710421920052523,0.021839139962244174,-3.0304036184960106,0.05116466227026751,1.5491084981796688,1.0,0,init,1
2026-01-14 21:26:50.188,0.2879731615452821,0.7602665475994892,-0.10416012778382963,-0.7144032921117145,-0.6970544284017538,0.05714294769745754,0.021857346451355366,-3.0303242975287903,0.05119706247828382,1.5490665320626646,1.0,0,init,1
2026-01-14 21:26:50.238,0.28802064404864963,0.760328822708136,-0.10423187740556504,-0.7143836774636068,-0.6971142869210043,0.056619911586560025,0.02195035207287263,-3.0309240800262787,0.050314098989704965,1.5491154804373806,1.0,0,init,1
2026-01-14 21:26:53.988,0.2917226227527238,0.7660034751654654,-0.10056248353798233,-0.7144027034258563,-0.6975137507978167,0.05069630842492154,0.023091753893423786,-3.0376049803037457,0.04023238061843717,1.5489680275353275,1.0,0,init,1
2026-01-14 21:26:54.038,0.29239747924098375,0.766947343988507,-0.09927376690527766,-0.7144008631141692,-0.6975846188086964,0.049644877097901594,0.023291469708677893,-3.0387939639143204,0.038446614953447734,1.5489562809633421,1.0,0,init,1
2026-01-14 21:26:54.088,0.29274847076901483,0.7674320140490243,-0.09743443165916796,-0.7144232942717682,-0.6976322260049024,0.04853861601938879,0.023508224012922213,-3.04003656802405,0.036562192091523345,1.5488733603206837,1.0,0,init,1
2026-01-14 21:26:54.138,0.2932181035366729,0.7681425038664904,-0.09502567760589038,-0.7144392086420677,-0.6977077438017467,0.047043171986785315,0.023821447550356093,-3.0416862217230953,0.03398469773177085,1.548800164589182,1.0,0,init,1
2026-01-14 21:26:54.188,0.29394641972587193,0.7692695970662116,-0.0922888276807676,-0.7144167308791592,-0.6978387128843182,0.045220990812634934,0.024185272994466246,-3.043719290719862,0.030863324842541562,1.5488317156745632,1.0,0,init,1
2026-01-14 21:26:54.238,0.29427965682913193,0.7696674872746412,-0.09074319264637624,-0.7144374229256407,-0.6978720022378898,0.044283349167273334,0.02434794041345514,-3.0448017470022415,0.029296062284741003,1.5487577799171999,1.0,0,init,1
2026-01-14 21:26:54.288,0.29429084749206796,0.7696820488468926,-0.09057515491282499,-0.7144512836108924,-0.6978626478966713,0.04419607097325626,0.024367915953600678,-3.0448960810633285,0.029145088546164963,1.5487162924063627,1.0,0,init,1
2026-01-14 21:26:54.338,0.29430466691354545,0.769697464046661,-0.09056000645113683,-0.7144555581924197,-0.697858211951739,0.04418948667605321,0.024381563665740805,-3.0448859802184534,0.02911721403694606,1.5487027546976064,1.0,0,init,1
2026-01-14 21:26:54.388,0.2943021695173097,0.7697077363720365,-0.09056406478416763,-0.7144393865073907,-0.6978756719760891,0.044178038336290554,0.024376431232293078,-3.0449086862671266,0.029105733841581966,1.5487495090360641,1.0,0,init,1
2026-01-14 21:26:54.438,0.29427789325914716,0.7696726229922191,-0.09058255845034383,-0.7144554898431706,-0.6978564329076864,0.04421648813012574,0.024385533821374955,-3.0448424664981784,0.029150350286609637,1.5487025413349365,1.0,0,init,1
