timestamp,x,y,z,qx,qy,qz,qw,roll,pitch,yaw,gripper_cmd_0to1,gripper_activated,gripper_last_action,logging_active
2026-01-14 21:24:15.035,0.2616007556112021,0.7414036417262211,0.1919657131268636,0.24910425535014535,0.9585467193511813,0.13772703052859256,0.01290433451649255,2.867446191356862,-0.043892055472136135,2.639142293989668,1.0,0,init,1
2026-01-14 21:24:15.086,0.2616439530802439,0.7414431101243536,0.18827081505215443,0.2492449884653462,0.9588451682309235,0.1354462143275004,0.012132687644149522,2.8722969993819523,-0.0442662976613743,2.6389611229490146,1.0,0,init,1
2026-01-14 21:24:15.135,0.26165806345919923,0.7414600189230925,0.1838979083450862,0.24941717543232916,0.9591884633826688,0.13275273623948744,0.011192646419971865,2.8780380641221406,-0.04476485953026655,2.638735859648922,1.0,0,init,1
2026-01-14 21:24:15.185,0.2616602974040322,0.7414969463948354,0.17861197227722972,0.2496437471915927,0.959585010869099,0.129511907457086,0.010063410471548058,2.884943313739246,-0.04536583940432954,2.638415209072573,1.0,0,init,1
2026-01-14 21:24:15.235,0.26162090014718625,0.7414561930438958,0.1718708360816909,0.24992396073536932,0.960076203293833,0.12536792838734215,0.008635985821578972,2.8937606205195205,-0.0460988151680161,2.6380059116180994,1.0,0,init,1
2026-01-14 21:24:15.285,0.26156672399763525,0.741344415196977,0.1638264181462529,0.2502695289199492,0.960633822788301,0.12041548996957138,0.006923235133224585,2.904296717219724,-0.04698855752392781,2.6374747857301895,1.0,0,init,1
2026-01-14 21:24:15.335,0.26142454437802926,0.7411274345126289,0.15476674744435437,0.2506313081201295,0.9612358316391625,0.11482400806305473,0.005007048561377496,2.9161758470780192,-0.04794944542332473,2.636901409265493,1.0,0,init,1
2026-01-14 21:24:15.385,0.2611948440584948,0.7408092225411375,0.14455448088136666,0.25099249981030386,0.961879996860083,0.10854323023638145,0.0028291075047554414,2.9295220229474848,-0.04906423256313923,2.636320052769392,1.0,0,init,1
2026-01-14 21:24:15.435,0.2608833326250066,0.7403428350348578,0.13358775596170425,0.251398204323154,0.9625167652287611,0.10178493384184989,0.000496748896407963,2.9438698121155373,-0.05024197550943259,2.6356151747153365,1.0,0,init,1
2026-01-14 21:24:15.485,0.2604340540280102,0.7397008341243071,0.12217049945994385,-0.251813192581603,-0.9631279175286303,-0.09471530039483356,0.0019345257665347219,2.9588654198560245,-0.051450212083806936,2.6348493501107844,1.0,0,init,1
2026-01-14 21:24:15.535,0.25996207071388866,0.7389482404229796,0.11105447437846053,-0.25218968159595057,-0.9636717289992554,-0.0878567070109465,0.004285120454744084,2.9734005737870004,-0.05259625553851807,2.6341139870434187,1.0,0,init,1
2026-01-14 21:24:15.586,0.25938433052793175,0.7381402645914232,0.10094808901499824,-0.252527540649811,-0.9641213784147028,-0.08159735502244149,0.0064560475860466265,2.986672554052357,-0.05368577056845624,2.63341975090565,1.0,0,init,1
2026-01-14 21:24:15.635,0.25883303842216837,0.7373275501435974,0.09212489383110545,-0.25281359690443134,-0.9644814703317626,-0.07609910561507852,0.008348935950781287,2.9983192287576914,-0.05460970424303281,2.6327995945883136,1.0,0,init,1
2026-01-14 21:24:15.685,0.25836771051020835,0.7366696014420412,0.08533978131989434,-0.25302171406466084,-0.9647361474255054,-0.0718901525902403,0.009797143610596675,3.007231617178126,-0.055311054419409665,2.6323280263691937,1.0,0,init,1
2026-01-14 21:24:15.735,0.2580257036898796,0.736145856768011,0.08040881614083745,-0.2531750990658926,-0.964909493054982,-0.0688053908564554,0.010856224686492387,3.013761341060369,-0.055819153976231904,2.631969873996654,1.0,0,init,1
2026-01-14 21:24:15.785,0.25774841753765004,0.7357869578708603,0.07707247359618652,-0.2532542966027033,-0.9650252302729039,-0.06674177803924765,0.01158020954727135,3.01813543482668,-0.05618522894117449,2.631775243773647,1.0,0,init,1
2026-01-14 21:24:15.835,0.25761890249483066,0.7355467402005521,0.0751911425019944,-0.2533188044617567,-0.9650849126848032,-0.06555423983310457,0.011972311979562894,3.020641256823071,-0.05635065652496351,2.6316198899704846,1.0,0,init,1
2026-01-14 21:24:15.885,0.25758123806927535,0.7354667284903766,0.07439514806470274,-0.2533567634975222,-0.965105887816326,-0.06506612644492382,0.012139805672866849,3.02167501627181,-0.05643222982772738,2.6315326326057127,1.0,0,init,1
2026-01-14 21:24:15.935,0.25760562701316125,0.7355299915734013,0.07441710372109545,-0.25335831439319095,-0.9651033021845867,-0.06509915113297342,0.012135945039986551,3.021609047698131,-0.056441666234752566,2.6315307457434773,1.0,0,init,1
2026-01-14 21:24:15.985,0.25770485003080623,0.7356687224920401,0.07454093147089372,-0.25335146167660494,-0.9650983699257365,-0.06520695237880135,0.01209241888469057,3.021377563649085,-0.05641121500616286,2.631546244963978,1.0,0,init,1
2026-01-14 21:24:16.035,0.2576544388182829,0.735648287346969,0.07449017188329474,-0.2533397525638449,-0.965104001706052,-0.0651646624933853,0.012116205015506754,3.0214708903250824,-0.056434345749540135,2.6315705613540095,1.0,0,init,1
2026-01-14 21:24:16.085,0.25770949705267165,0.7356629532850247,0.07451386251791695,-0.2533489290756405,-0.9651001576378417,-0.06518969023236049,0.012095873306551862,3.0214126637016454,-0.0564088452194068,2.631550928262807,1.0,0,init,1
2026-01-14 21:24:16.135,0.2576852246938418,0.7356520112362143,0.07449611234321263,-0.25336004945459334,-0.9650981404696236,-0.06517540166555098,0.012100893362671608,3.021443564785399,-0.056412701812919665,2.6315276995565413,1.0,0,init,1
2026-01-14 21:24:16.185,0.25768331868019767,0.7356526146828782,0.07449842811441404,-0.2533471869791604,-0.965101399204746,-0.06517672760026885,0.01210315174276719,3.021441371178586,-0.056416140491864955,2.6315545639024682,1.0,0,init,1
2026-01-14 21:24:16.235,0.25767998288322713,0.7356402394418886,0.07448260473253523,-0.25333777889513376,-0.965105450115156,-0.06515107081730719,0.012115193513132207,3.0214966637685223,-0.05642527019218534,2.631573848736294,1.0,0,init,1
2026-01-14 21:24:16.286,0.25768215327951477,0.7356407323450627,0.0744922566989438,-0.253369187732875,-0.9650970507349573,-0.06515366736887342,0.012113504804829941,3.0214926028591758,-0.056427218649338584,2.6315089133571936,1.0,0,init,1
2026-01-14 21:24:16.336,0.2576774341545741,0.7356410636187924,0.0744329524572371,-0.2533513800798002,-0.9651034111701027,-0.06512901470566766,0.012111787768995987,3.021538582635969,-0.05640921782823237,2.6315442894575254,1.0,0,init,1
2026-01-14 21:24:16.386,0.2576770210996775,0.7356355186358774,0.0743215133067022,-0.25337250930315125,-0.965102228417311,-0.06506157858959649,0.012126467943929058,3.021678097508357,-0.056406099291915784,2.6314985866021487,1.0,0,init,1
2026-01-14 21:24:16.586,0.2627332913237594,0.7424927558729447,0.0763909555828832,-0.25402673343644594,-0.9647346054342768,-0.06807057729569367,0.01113356563776135,3.0153761673894044,-0.05609477846193346,2.6302016247329463,1.0,0,init,1
2026-01-14 21:24:16.635,0.26629684276457355,0.7469548161243412,0.0770727668917438,-0.255143933554516,-0.9643330337202751,-0.06964588140771835,0.010621885384508692,3.0121250590572055,-0.056054869030501324,2.6279194694495596,1.0,0,init,1
2026-01-14 21:24:16.685,0.2701258741852446,0.7513041185898461,0.07664203279454865,-0.25721710307874207,-0.963715981919317,-0.070590672858478,0.010383880895591214,3.010290935824519,-0.056358310730189834,2.6236559509122843,1.0,0,init,1
2026-01-14 21:24:16.736,0.2744233498884402,0.7554398566818964,0.07460339226973103,-0.26301962634956666,-0.9621454110857673,-0.07058654876004689,0.010696878782134074,3.010800604532036,-0.05774729113525455,2.611679165246808,1.0,0,init,1
2026-01-14 21:24:16.786,0.2790423148852113,0.7590936740761921,0.0710162496321069,-0.2722649316658193,-0.9596317085799775,-0.06961574277904246,0.011508224459147601,3.013669865779139,-0.06003121482170887,2.592532324395934,1.0,0,init,1
2026-01-14 21:24:16.835,0.2836227288808481,0.7626631044550266,0.06681956769192218,-0.2822321121628083,-0.9568299248414494,-0.06831037735526199,0.012458817664943956,3.0173414033746826,-0.06244127090452144,2.571814322975541,1.0,0,init,1
2026-01-14 21:24:16.885,0.288046657159311,0.7667864398066854,0.06242516632820658,-0.2901593044247157,-0.9545330405270698,-0.06707205014749482,0.013251139080270757,3.020694300103622,-0.0642646848404025,2.555274482919021,1.0,0,init,1
2026-01-14 21:24:16.935,0.2910271137673435,0.770149195792209,0.05747809605528015,-0.29631027085157724,-0.9527527210143666,-0.06528279903485107,0.014164467436535518,3.0250756047308935,-0.06572570836386082,2.5423839850604764,1.0,0,init,1
2026-01-14 21:24:16.985,0.2923948484550492,0.7721849694431345,0.05217174417752954,-0.30107364838688494,-0.9514042564409465,-0.06287799819409098,0.015197250282995003,3.0306240424498094,-0.06682900709472564,2.532343642933745,1.0,0,init,1
2026-01-14 21:24:17.035,0.2927866810928217,0.7727548103045572,0.046732430095031446,-0.3073740714890539,-0.9495562300156102,-0.05994665107342958,0.01644825947826239,3.0374291963794975,-0.06814190881611681,2.5190297112061475,1.0,0,init,1
2026-01-14 21:24:17.085,0.29240383232093786,0.7722055879508847,0.041876586448645725,-0.31838471423795733,-0.9460823511253974,-0.05690166740975335,0.01793206275486672,3.0449557847162403,-0.07022135489502195,2.4957408155070326,1.0,0,init,1
2026-01-14 21:24:17.135,0.29206637173260064,0.7716917496114432,0.038287566322198735,-0.3355119722743606,-0.9402611936130665,-0.05440857558993426,0.019501567838886014,3.0520024185158237,-0.07324807375574428,2.4593872753030066,1.0,0,init,1
2026-01-14 21:24:17.185,0.29182051644256335,0.7713472572865651,0.03577892025869636,-0.3546945182313644,-0.9332724072986639,-0.05248646804150595,0.020966239150240533,3.0581573859227,-0.07644217532370777,2.4183955165827546,1.0,0,init,1
2026-01-14 21:24:17.235,0.2918504028477193,0.7714107687686154,0.03410461806806053,-0.37207220454919226,-0.9265269429805114,-0.05117784507695862,0.022156865896854127,3.06291759981543,-0.07922442320065462,2.3809815968862242,1.0,0,init,1
2026-01-14 21:24:17.285,0.292243206813997,0.7719721354768506,0.03293114534094521,-0.386206756405162,-0.9207490010818571,-0.05035641383446602,0.023018468661019358,3.066321294100385,-0.08137421561985446,2.3503402288120196,1.0,0,init,1
2026-01-14 21:24:17.335,0.2921777469752587,0.7718753312398585,0.03102856578188229,-0.39724928049632746,-0.9160933362706947,-0.04897232102192607,0.023826878924932304,3.0704942147963092,-0.08265782049433168,2.326212000612593,1.0,0,init,1
2026-01-14 21:24:17.385,0.29177383535586354,0.7713324852660397,0.028257756962449143,-0.4053167541256086,-0.9126353038894197,-0.04702063176763129,0.024580299182888714,3.0754165276360697,-0.08307773017073361,2.308442574078524,1.0,0,init,1
2026-01-14 21:24:17.436,0.29143994472862345,0.770777561068959,0.024955045895848432,-0.4118540933850907,-0.9097970975550139,-0.04480737113486369,0.025253643982604507,3.0806157186221985,-0.08295469155063802,2.293950257570197,1.0,0,init,1
2026-01-14 21:24:17.485,0.29096469681828324,0.7700818913775681,0.021264488721632502,-0.4200501229621224,-0.9061422445776013,-0.04226924906630282,0.02602762714393277,3.086638851483772,-0.0827743618555078,2.275724984804381,1.0,0,init,1
2026-01-14 21:24:17.535,0.2902844308055673,0.7691122097708256,0.01747317961465253,-0.4322424512668478,-0.9004896798792981,-0.03946287772203463,0.026971856361802677,3.093655118719139,-0.08278534657555528,2.248525112959347,1.0,0,init,1
2026-01-14 21:24:17.585,0.2894826674562859,0.7679025789536601,0.013673264798941098,-0.44810205614701815,-0.8928012998009818,-0.03642861586164068,0.027988252837524565,3.101480942848663,-0.0827176687473929,2.212910792130348,1.0,0,init,1
2026-01-14 21:24:17.636,0.28853845621625496,0.7665529706460144,0.00996840749520067,-0.4649466164271994,-0.8842360908987283,-0.03334124935835529,0.028974825560452062,3.109458699385903,-0.08233797924020841,2.174741485418791,1.0,0,init,1
2026-01-14 21:24:17.685,0.2876603321168397,0.7652732364522822,0.00655488275400587,-0.4808618378899534,-0.8757605820566491,-0.030435841271311624,0.02981535414854096,3.116873036607554,-0.08158356454474607,2.138329789715606,1.0,0,init,1
2026-01-14 21:24:17.736,0.2867717646505312,0.7639784711399389,0.003355327476408876,-0.49516900961440447,-0.8678212118463312,-0.027672778209082156,0.030466597007967767,3.1236760446040797,-0.0803710208039144,2.1052874895107174,1.0,0,init,1
2026-01-14 21:24:17.785,0.28608196461423646,0.7629314273960588,0.0001933268857430559,-0.5082009277411963,-0.8603150677570847,-0.02508125314759462,0.030995676692992833,3.1299045238685688,-0.07890658414560141,2.074925543654418,1.0,0,init,1
2026-01-14 21:24:17.835,0.2854716809246371,0.7620374240392134,-0.003205761924271383,-0.5204805546617919,-0.8529991107282945,-0.02239263942203744,0.03148140745594481,3.136145565443808,-0.07709343537046387,2.0460645210529056,1.0,0,init,1
2026-01-14 21:24:17.885,0.28487175646676854,0.761159385894623,-0.007138819807870511,-0.5327132708224042,-0.8454721354161187,-0.019415330367605264,0.03188235046731811,-3.140451412837905,-0.07466624479963564,2.0170650733993316,1.0,0,init,1
2026-01-14 21:24:17.935,0.2843748594624811,0.7601714657885218,-0.011564853824053395,-0.5451723663730168,-0.8375500622439634,-0.016133758566728076,0.03219760880700154,-3.1334909827272837,-0.07158670440387634,1.9872687415430943,1.0,0,init,1
2026-01-14 21:24:17.985,0.28415853132257163,0.7590545892291001,-0.016250413039687273,-0.5578206928261197,-0.8292297944162947,-0.01270274269330944,0.03244476899848531,-3.126427249593293,-0.0680325121064451,1.9567444031953207,1.0,0,init,1
2026-01-14 21:24:18.035,0.2841705299125269,0.7577758634845623,-0.021048026233200595,-0.5703267210775897,-0.8207193233686688,-0.00918625127270635,0.03260116963721549,-3.119437468552659,-0.06403490211987899,1.926278587491373,1.0,0,init,1
2026-01-14 21:24:18.085,0.2843520495471409,0.756444878191605,-0.02583519764913403,-0.5826854603169949,-0.8120220677029347,-0.005705626279513658,0.03263834749770332,-3.1127677409470746,-0.059690727653291295,1.8958858415432027,1.0,0,init,1
2026-01-14 21:24:18.135,0.2845045613927211,0.7551053958511822,-0.030459217609716954,-0.5946888082845383,-0.8032903226086172,-0.0023082800912068617,0.032627453892081715,-3.1064339603762505,-0.055192069018244805,1.8660728869193386,1.0,0,init,1
2026-01-14 21:24:18.185,0.28427186957715034,0.7541504951987414,-0.03415710695873847,-0.6065037234654495,-0.7944146000843825,0.0005178279357279986,0.03253318996879031,-3.101243342999203,-0.05108376777508791,1.8364417648559883,1.0,0,init,1
2026-01-14 21:24:18.235,0.2838400274584312,0.7535329116698223,-0.03680406807795772,-0.6175944065557056,-0.7858238794009734,0.002662424018459067,0.03241744981728541,-3.0973017947518975,-0.04767827778959638,1.8083440576946095,1.0,0,init,1
2026-01-14 21:24:18.285,0.28354642031836735,0.7530843690771157,-0.03860496892956122,-0.6286488571458014,-0.777007377165958,0.004287134524219397,0.03227647311166103,-3.094284189528058,-0.04478287821741652,1.7800459509110147,1.0,0,init,1
2026-01-14 21:24:18.336,0.2833483897409721,0.7527849241917483,-0.039641012926667885,-0.6391031266686588,-0.7684294817293796,0.00541380992792447,0.03215611533636727,-3.09210535302537,-0.042512252562977394,1.7529927352344425,1.0,0,init,1
2026-01-14 21:24:18.385,0.28295895141307215,0.7522299961039672,-0.040618413456204816,-0.6501426353311824,-0.7591090275536185,0.006635955328065267,0.032000032939180696,-3.0898442594369797,-0.039965030668507685,1.7240991382759958,1.0,0,init,1
2026-01-14 21:24:18.435,0.28207681097322357,0.7509538686371859,-0.042035515503213994,-0.6597658903891911,-0.7507541819659581,0.008314863912874995,0.03174887679420127,-3.087150617241217,-0.036707719987916825,1.69863206375436,1.0,0,init,1
2026-01-14 21:24:18.485,0.2807773440764362,0.749002938994011,-0.0440590045231517,-0.668055313601254,-0.7433750780429351,0.010530552636884514,0.03137991037195876,-3.0839468066173503,-0.03258987199784865,1.6764837832230803,1.0,0,init,1
2026-01-14 21:24:18.536,0.2795040896740975,0.7468367087023635,-0.04657867480239966,-0.6745112233197904,-0.737512958034786,0.01294638231057366,0.03068611300716046,-3.081039765847891,-0.027801432849900158,1.6591311976821987,1.0,0,init,1
2026-01-14 21:24:18.585,0.2788614115858173,0.745088712115389,-0.049155569575068336,-0.6785630698677941,-0.7337845736851063,0.015007290527686746,0.029784910011277376,-3.0790888248052264,-0.023346749608475773,1.6482247883473575,1.0,0,init,1
2026-01-14 21:24:18.635,0.2788205698249972,0.7441375076375788,-0.051842034184673605,-0.6807181146249872,-0.7317619320627916,0.01682364261608663,0.029398779809021412,-3.0768880562199006,-0.020122857289725946,1.6423890719479064,1.0,0,init,1
2026-01-14 21:24:18.685,0.27924760413411714,0.7432694522696679,-0.054632640842297936,-0.6817129533790192,-0.730803392825415,0.018553942663406254,0.029147923455376933,-3.0746731012358137,-0.017306740559197224,1.6396968345966039,1.0,0,init,1
2026-01-14 21:24:18.735,0.2799396266482858,0.7423079838523869,-0.05729467655511038,-0.6823276231677089,-0.7301948976613456,0.02020395485383432,0.02891757769776751,-3.0725622572903726,-0.014660027495022931,1.6380397879551916,1.0,0,init,1
2026-01-14 21:24:18.785,0.28072060638739,0.7414060293350506,-0.05968487148981183,-0.6831809170234713,-0.7293627875751136,0.021658172840167557,0.02871728164109608,-3.0706963928452393,-0.012298042408759282,1.635725148981135,1.0,0,init,1
2026-01-14 21:24:18.835,0.28168200206670696,0.7410260157834875,-0.061412172476213056,-0.6845515832673564,-0.7280533538790048,0.022612172985802422,0.028568048315356857,-3.0694877695477767,-0.010639929895706005,1.6319839541681114,1.0,0,init,1
2026-01-14 21:24:18.885,0.28306313602417926,0.7416289505497884,-0.0620522188647783,-0.6866389117272721,-0.7260855287343676,0.022636544172412204,0.028537637121033133,-3.069464025392606,-0.010355451641557559,1.626252936205865,1.0,0,init,1
2026-01-14 21:24:18.935,0.2848306799209147,0.7432248980672878,-0.06170732402839062,-0.6900570106758966,-0.7228605240210003,0.02182802547180822,0.028592343960095305,-3.0705104149608693,-0.011211624346926153,1.6168230675573743,1.0,0,init,1
2026-01-14 21:24:18.985,0.28613635535118054,0.7450521186269989,-0.060891043398620615,-0.6945981308666602,-0.7185264961126991,0.02081613220373529,0.028632143137142612,-3.071841345635897,-0.012228518694261998,1.6042323299099688,1.0,0,init,1
2026-01-14 21:24:19.035,0.28666884346681376,0.7458973112809719,-0.06043250236075287,-0.7001533784133595,-0.7131270845573212,0.020457792968769522,0.02857423094295361,-3.0723415427736827,-0.012107226075001658,1.588736123869178,1.0,0,init,1
2026-01-14 21:24:19.086,0.2866097154682698,0.745836240358238,-0.060513306806091294,-0.7042308342829053,-0.7090987438748927,0.020696624921215514,0.02845264833232585,-3.0721060273069214,-0.011201305749620057,1.5772955379635754,1.0,0,init,1
2026-01-14 21:24:19.135,0.2865406420085912,0.7457561015944109,-0.06083856427096053,-0.7053931444899235,-0.7079382753232034,0.020946596605910927,0.02837516748242181,-3.071843086232242,-0.010624762862583044,1.5740272379295663,1.0,0,init,1
2026-01-14 21:24:19.185,0.28641661233117954,0.7455823474111228,-0.061567478053467156,-0.7054010178407777,-0.7079198601200957,0.021403643193181277,0.02829769840107335,-3.0713047943803287,-0.00986886219428122,1.574013777614227,1.0,0,init,1
2026-01-14 21:24:19.235,0.2863037321574937,0.7453984321947811,-0.06269215429388066,-0.7054186380810615,-0.7078865540758625,0.022073747678291757,0.028176608559169907,-3.0705261031390907,-0.008749330255441229,1.5739777014847223,1.0,0,init,1
2026-01-14 21:24:19.285,0.28645082417503775,0.7456575572459565,-0.06401858280959254,-0.705441011598613,-0.707849220311745,0.02266169193615367,0.028087509276746487,-3.0698185851906614,-0.007790548120718024,1.5739245687817098,1.0,0,init,1
2026-01-14 21:24:19.335,0.2871235642706099,0.746623715497784,-0.06542866106132939,-0.7054716075763048,-0.7078092233546048,0.023004046405668745,0.028048673530510704,-3.0693879965233246,-0.007248879941803259,1.573842577174071,1.0,0,init,1
2026-01-14 21:24:19.385,0.287940152319966,0.7478475425579845,-0.06688927627381529,-0.7056401413399271,-0.707634457255996,0.023270731836224693,0.027998908435617875,-3.069078802645169,-0.006784511793144493,1.5733724930464286,1.0,0,init,1
2026-01-14 21:24:19.435,0.28855990985081614,0.7487151906400029,-0.06829986326194089,-0.7060958783495813,-0.7071702641383287,0.02365580908900135,0.02791470566931227,-3.068648351600585,-0.006074398325260589,1.5720951106916827,1.0,0,init,1
2026-01-14 21:24:19.485,0.2889251067038906,0.7492580193646826,-0.06962916244877292,-0.706761863824113,-0.7064923858930534,0.024145951045521613,0.027805567196414836,-3.068103857326188,-0.005157991161184905,1.5702253557220875,1.0,0,init,1
2026-01-14 21:24:19.535,0.2891526359893431,0.7496727746428823,-0.07068463136553352,-0.7079327928687059,-0.7053080412495004,0.02457528907692979,0.027708895623827355,-3.0676261762703754,-0.004291320902761767,1.5669230372149794,1.0,0,init,1
2026-01-14 21:24:19.585,0.28947407666839764,0.7502310941498731,-0.07131844435471517,-0.7096432508198821,-0.7035842839176478,0.02473054040833312,0.027640773523770784,-3.0674941155870643,-0.003795514626480934,1.5620810420999183,1.0,0,init,1
2026-01-14 21:24:19.636,0.28984883885594215,0.7508547917392773,-0.071419405514546,-0.7112695510270612,-0.7019454161815885,0.02461068997090932,0.027614713878205785,-3.0676911501654636,-0.003758383687931489,1.5574619441876183,1.0,0,init,1
2026-01-14 21:24:19.685,0.2899271133222098,0.7510200080377144,-0.07136954696353859,-0.7120648934235357,-0.7011402999661597,0.02455899974901304,0.02761743739778158,-3.067755636367686,-0.0037522024095662963,1.5551973137924517,1.0,0,init,1
2026-01-14 21:24:19.735,0.28988810795262093,0.7509540381926392,-0.07143711373758505,-0.7122284137703356,-0.7009722558673617,0.024629750288825865,0.02760359619911345,-3.0676752036343555,-0.0036147021076028594,1.554732987249936,1.0,0,init,1
2026-01-14 21:24:19.785,0.28987083444147593,0.7509766068356086,-0.07143005532838442,-0.7122192251654167,-0.7009823681159115,0.024618780538436403,0.027593668479970603,-3.0677048137048897,-0.0036174204424115654,1.5547602641226277,1.0,0,init,1
2026-01-14 21:24:19.835,0.28985745245360744,0.7509512249054336,-0.07145848069943793,-0.7122381296444152,-0.7009629298036263,0.024636650403111866,0.027583567185127927,-3.0676940459393514,-0.003575800149645299,1.55470751685626,1.0,0,init,1
2026-01-14 21:24:19.885,0.28986513552890736,0.7509588819696577,-0.07146208264117643,-0.7123386003770127,-0.7008612450746934,0.024637015005016732,0.02757265052387477,-3.067708601997051,-0.0035494182328715913,1.5544224267262137,1.0,0,init,1
2026-01-14 21:24:19.935,0.28984234932906006,0.7509314045130686,-0.0715669648494975,-0.7123860993276617,-0.700810062719644,0.02471141861278917,0.027579834403984496,-3.067593695083356,-0.003448315561985655,1.5542862750314574,1.0,0,init,1
2026-01-14 21:24:19.985,0.2897731264244887,0.7508553688136556,-0.07185424416074467,-0.712482390721005,-0.7007072022938945,0.024900856069009655,0.0275355576114747,-3.0673906044937103,-0.003105889142497667,1.5540167304401382,1.0,0,init,1
2026-01-14 21:24:20.036,0.28967530348812087,0.750697748462011,-0.07249605865667023,-0.7128168926441156,-0.7003560077986068,0.02530897076037886,0.02744077077335104,-3.066952090277675,-0.0023552957302479358,1.553073513191495,1.0,0,init,1
2026-01-14 21:24:20.085,0.28953590480706665,0.7505023576455253,-0.07336607745841808,-0.713583239139616,-0.6995594040844271,0.025864173813175646,0.027324814528498855,-3.0663374643566277,-0.001318180463741459,1.550899627416033,1.0,0,init,1
2026-01-14 21:24:20.135,0.289287664739737,0.7501968268186446,-0.07460700328529035,-0.7147850582234231,-0.6983077777075962,0.026682972795698884,0.02714013810576912,-3.065454525132338,0.000240841474389833,1.547485681950884,1.0,0,init,1
2026-01-14 21:24:20.185,0.28908947858871864,0.7499597594881888,-0.07613455335524043,-0.7165076477958814,-0.6965114822185928,0.02764807286831751,0.026909660985233144,-3.0644396011323667,0.0021343372167433976,1.5425778392868903,1.0,0,init,1
2026-01-14 21:24:20.236,0.28916801481938226,0.750318771304764,-0.07755787846845077,-0.7185124854926563,-0.694423392807633,0.028320534399584284,0.02671903898015543,-3.0637848586961858,0.0035886714243499236,1.5368413862053012,1.0,0,init,1
2026-01-14 21:24:20.286,0.28965787028210727,0.7518063091920218,-0.0783958904989179,-0.7203613215548579,-0.6925103418337248,0.028269736024450244,0.02664235136365026,-3.063975768486376,0.0038286504587149326,1.5315254489265633,1.0,0,init,1
2026-01-14 21:24:20.335,0.29046211563207563,0.7533152025074478,-0.07901717633405327,-0.7219838225414745,-0.6908279718572482,0.028045214407547807,0.02663717771905494,-3.06430313976592,0.0036929756787722847,1.5268415163979816,1.0,0,init,1
2026-01-14 21:24:20.385,0.29102716347855473,0.7542966505199169,-0.07961056474383024,-0.7231471613857196,-0.6896125880600598,0.027987869765972433,0.02663344729556552,-3.0643940783084544,0.0037451848673234686,1.5234760219325971,1.0,0,init,1
2026-01-14 21:24:20.435,0.2910979482687854,0.7543425424281677,-0.08021722478349741,-0.7236664049794691,-0.689058973092416,0.028289187635653145,0.02654030459190302,-3.0641159367990376,0.0043682132686943004,1.521981570016731,1.0,0,init,1
2026-01-14 21:24:20.485,0.29099765657593263,0.7542109232744642,-0.08059208034415616,-0.723711404192516,-0.6890034050346481,0.028539725424486382,0.02648764551734317,-3.063846699239557,0.004808912153684747,1.5218566437886487,1.0,0,init,1
2026-01-14 21:24:20.535,0.29101092907137266,0.7542142635302121,-0.08065105548660456,-0.7237229339458988,-0.688991183283602,0.028561764369911907,0.026466768867396413,-3.063846611037198,0.004870886278352171,1.5218254252428818,1.0,0,init,1
2026-01-14 21:24:20.585,0.29102561717624714,0.7542395875921099,-0.08064972515295935,-0.7237463931549113,-0.688966506839731,0.02855042516728326,0.026479880496004155,-3.0638434268856263,0.004839051827514893,1.5217560473020832,1.0,0,init,1
2026-01-14 21:24:20.635,0.29103316707243737,0.7542289340678148,-0.08067844300262399,-0.7239735379617217,-0.688726803973057,0.028577250689503723,0.026477283910462623,-3.0638117715769635,0.00490713601665345,1.5210978119903389,1.0,0,init,1
2026-01-14 21:24:20.685,0.2909873082012739,0.7541802880244727,-0.08083462061668391,-0.724589800141926,-0.6880752978687036,0.02870534211801285,0.02641986614399332,-3.0637229077135104,0.005241505683515654,1.5193161084373994,1.0,0,init,1
2026-01-14 21:24:20.735,0.2909108902874737,0.7540592499745669,-0.08131425015034671,-0.7259457700031403,-0.6866350597791124,0.029043667414545296,0.026296370087825347,-3.063447433743114,0.00605627273785011,1.5153894462821922,1.0,0,init,1
2026-01-14 21:24:20.785,0.29083686348499566,0.7539624936028412,-0.08208531410917365,-0.728148819175864,-0.6842828739534272,0.029564051285346404,0.026119196358817504,-3.063012038845488,0.00730828562444234,1.5089895030096157,1.0,0,init,1
2026-01-14 21:24:20.835,0.2909341276827339,0.7541439051280919,-0.08309123399246275,-0.730793108788867,-0.6814430460106855,0.030091858115532246,0.02590921198216644,-3.0626273268953277,0.008670649060287028,1.5012780243984574,1.0,0,init,1
2026-01-14 21:24:20.885,0.2911172649890247,0.7544883886974463,-0.08427598574822101,-0.7329444572699177,-0.6791120273067672,0.030623601021007,0.025719097672832012,-3.062210323922659,0.009958664745408465,1.494981864851029,1.0,0,init,1
2026-01-14 21:24:20.935,0.29128768294364504,0.7548097675055963,-0.08564741486944873,-0.7336016124156296,-0.6783818703880314,0.031206845601831075,0.025550831250823074,-3.06167409283587,0.011120572322804105,1.4930649297656002,1.0,0,init,1
2026-01-14 21:24:20.985,0.2913792638549923,0.7550213193371095,-0.08714356688586658,-0.7335823816111791,-0.6783764153699268,0.0318770674304059,0.02542009110047931,-3.060954452849519,0.012280438195286292,1.4931338472038882,1.0,0,init,1
2026-01-14 21:24:21.035,0.29126068371508834,0.7548390354405317,-0.0887179799829385,-0.7335988416771994,-0.6783250210233017,0.03273436106476659,0.02522631461966379,-3.060073574548342,0.013804936408899064,1.4931035386871667,1.0,0,init,1
2026-01-14 21:24:21.085,0.2910390053779665,0.7545198399528201,-0.08997679903299395,-0.7335957759049297,-0.678297723168688,0.033489337716549994,0.025057944407411038,-3.0592940711624395,0.015142358756962498,1.4931280419283746,1.0,0,init,1
2026-01-14 21:24:21.135,0.29096432629365143,0.7543770395191314,-0.09057346883251591,-0.7336214821067341,-0.6782543207911288,0.033848756312349015,0.02499718015678761,-3.058895105700329,0.015756110562964627,1.4930577353628753,1.0,0,init,1
2026-01-14 21:24:21.185,0.2909950237161096,0.7544577027754802,-0.09056285742277795,-0.7336003697266333,-0.6782796320457944,0.03380158445008662,0.024993822785485568,-3.05896369515506,0.015688751444056057,1.4931203028593991,1.0,0,init,1
2026-01-14 21:24:21.235,0.2910838704446262,0.7546174346612597,-0.09046544043675527,-0.7335951027396357,-0.6782902132488707,0.03368308923418586,0.02502121793332285,-3.0590844960396124,0.015476821977536614,1.493133314954583,1.0,0,init,1
2026-01-14 21:24:21.285,0.2911047110222384,0.7546093309205228,-0.09048330093491548,-0.7335885214627921,-0.6782966292811414,0.033699069439298415,0.025018725043492056,-3.0590662745738206,0.015502888302862049,1.4931529063870683,1.0,0,init,1
2026-01-14 21:24:21.335,0.2911144484070773,0.7545966256624088,-0.09049695065209548,-0.7336096911708887,-0.678273937439409,0.03369969946130635,0.025012338291563716,-3.0590752769745917,0.015515040320364396,1.4930912171220885,1.0,0,init,1
2026-01-14 21:24:21.385,0.29109087845765086,0.7546074791217684,-0.09050031855070735,-0.7336106774116795,-0.6782718480896112,0.033714820889560626,0.025019690826728568,-3.0590439415127806,0.015527425250458722,1.4930875609382956,1.0,0,init,1
2026-01-14 21:24:21.435,0.29108111239456935,0.7545628403874947,-0.09054560057371533,-0.7336240978955192,-0.6782572916714046,0.03374369358434548,0.024981841902527037,-3.0590605551614716,0.01562277617511193,1.4930517361402615,1.0,0,init,1
2026-01-14 21:24:21.485,0.2910963535501509,0.7545784731084483,-0.09057818947584484,-0.7336286523974798,-0.6782499873871062,0.033767139289367164,0.025014701578491574,-3.0589805327167006,0.015613274068976153,1.4930350442558227,1.0,0,init,1
2026-01-14 21:24:21.535,0.29109203883870294,0.754554953721889,-0.09067325035162999,-0.7336539145427803,-0.6782216057538655,0.033809004093552086,0.024986764634611133,-3.0589652038548323,0.015715736049406636,1.492963354279285,1.0,0,init,1
2026-01-14 21:24:21.585,0.2910097141697252,0.7544573530494428,-0.09097078970788111,-0.7336801419805915,-0.6781851454101877,0.03400870068377567,0.024935237839309683,-3.0587699304702576,0.016082294138338987,1.49289084790635,1.0,0,init,1
2026-01-14 21:24:21.635,0.2909476892750519,0.754358568730418,-0.09131519257777239,-0.7337283873877348,-0.6781236270298906,0.03422542680301002,0.024892170764553776,-3.0585396355165666,0.016465140126779725,1.4927526247725558,1.0,0,init,1
2026-01-14 21:24:22.435,0.28941976127691577,0.7521559479408505,-0.10283066031269514,-0.7338192871218127,-0.6777083708992634,0.040881311581387796,0.023437922785228667,-3.0516259139820203,0.02823458815472831,1.492605379327648,1.0,0,init,1
2026-01-14 21:24:22.485,0.2895721099201857,0.7523933165119933,-0.10334354440646266,-0.7338131207552431,-0.677707749831922,0.041028566007126115,0.023391588159056363,-3.0514933642685738,0.02851314234141101,1.4926272773813891,1.0,0,init,1
2026-01-14 21:24:22.535,0.2901264331508465,0.7531634135220769,-0.10448820955924959,-0.7338234046577955,-0.6776853422313339,0.0412411184762148,0.0233443322472967,-3.051274030277028,0.028891191450933773,1.4926005684979158,1.0,0,init,1
2026-01-14 21:24:22.586,0.2905559991100987,0.7538199368861082,-0.10525144622382702,-0.7338039189885014,-0.677701382698871,0.04132883394904177,0.023336063283420295,-3.0511660172023665,0.029028832727998666,1.492658425527716,1.0,0,init,1
2026-01-14 21:24:22.635,0.2907545212626126,0.7541090012169227,-0.10576749881365147,-0.7337987571259164,-0.6777001441534103,0.04145195209450506,0.02331596711402607,-3.051027808654482,0.029236478213766653,1.4926750373322955,1.0,0,init,1
2026-01-14 21:24:22.685,0.2906971979541594,0.7540976578089064,-0.10598297146565057,-0.7337863036458183,-0.6777070714909939,0.04157369093860927,0.023289784340971006,-3.0509000894675875,0.02944936347192257,1.492713678014627,1.0,0,init,1
2026-01-14 21:24:22.735,0.2907329120706732,0.7541127612300567,-0.10595735969223145,-0.7337954464946917,-0.6776993417944251,0.041539222149159984,0.023288148451555954,-3.0509497775066845,0.029402094459652073,1.4926870103597896,1.0,0,init,1
2026-01-14 21:24:22.786,0.29071207139211885,0.7540778624506514,-0.10603612444953986,-0.7338045555355474,-0.6776857530732414,0.04160122763852088,0.023285880180902798,-3.0508691498524936,0.029497599720030333,1.4926601718536483,1.0,0,init,1
2026-01-14 21:24:22.835,0.2906920564292067,0.7540383153976953,-0.10619054033332738,-0.7338090558199691,-0.6776758181455568,0.041696375035415324,0.023263005099550225,-3.0507734850683956,0.02966915572932099,1.492648655825286,1.0,0,init,1
2026-01-14 21:24:22.885,0.29060592387481904,0.7539213366350999,-0.10671927820335933,-0.7337930659961246,-0.6776766159640298,0.04200286065663949,0.023192674882535208,-3.0504590616707365,0.030213145333271962,1.4927010359296844,1.0,0,init,1
2026-01-14 21:24:22.935,0.29064380207426677,0.753991784606131,-0.10780247771694779,-0.7337879904864291,-0.6776563842226684,0.04246512619185622,0.0231024457072713,-3.049962357176358,0.031014731588190587,1.4927224490385282,1.0,0,init,1
2026-01-14 21:24:22.985,0.2908437419292462,0.7543323367734611,-0.10896241311050732,-0.7337775762754385,-0.6776444837551363,0.04288052935319989,0.02301482987048426,-3.0495252861955673,0.03174312738269984,1.492759446176577,1.0,0,init,1
2026-01-14 21:24:23.035,0.2906406377913144,0.7540753326846547,-0.11010119913265244,-0.7337679355552276,-0.6776161602431829,0.043557661153663184,0.02288419286597649,-3.0487952098345046,0.032914975405807574,1.492796916109957,1.0,0,init,1
2026-01-14 21:24:23.086,0.29044451015404243,0.7537774462893067,-0.1109897922220879,-0.7337588908258036,-0.6775953667439827,0.044111481978875176,0.02272853402226966,-3.048269586166323,0.033939400813730265,1.492835133224604,1.0,0,init,1
2026-01-14 21:24:23.136,0.2903102186678473,0.7535780721296632,-0.11156718457131279,-0.7337615249459033,-0.6775706333020834,0.044483745220772225,0.02265519381532374,-3.047870760511475,0.03458682874411485,1.492832321344971,1.0,0,init,1
2026-01-14 21:24:23.185,0.29027028859875287,0.7535105526558766,-0.1117534226834344,-0.7337551661643209,-0.6775700361681606,0.04460492082230543,0.022640743200770135,-3.047726739197598,0.03478381761407299,1.4928518326572668,1.0,0,init,1
2026-01-14 21:24:23.235,0.29025711990608655,0.7535270213307446,-0.11175866136824218,-0.7337499783630334,-0.6775755405074881,0.04460843383170956,0.022637221324963194,-3.047726861310742,0.0347930391609863,1.492867409542518,1.0,0,init,1
2026-01-14 21:24:23.285,0.2902653568391131,0.7535097679925022,-0.11175289670727698,-0.7337540631372811,-0.6775711566171329,0.044602509187639694,0.02264770902802294,-3.0477197426859295,0.03477068175405495,1.492854484331493,1.0,0,init,1
2026-01-14 21:24:23.335,0.2902588758656894,0.7535063100390894,-0.11174692241708112,-0.7337406087596368,-0.677586276757516,0.044602081717382135,0.02263207708984255,-3.047742575550644,0.03478936465072088,1.492895486974245,1.0,0,init,1
2026-01-14 21:24:23.385,0.29030236204660387,0.7535545244299106,-0.11166296647063209,-0.7337357165550022,-0.6775950245369876,0.04454365231412504,0.022643851544181175,-3.047804564579758,0.03468677028553362,1.49290910592391,1.0,0,init,1
2026-01-14 21:24:23.436,0.2903273872479765,0.7535692968391863,-0.11164975640544283,-0.7337335814160508,-0.6775984661269205,0.044521686018043724,0.022653248750032298,-3.0478205602497956,0.03464142708786346,1.4929146635385995,1.0,0,init,1
2026-01-14 21:24:23.486,0.2903077092349483,0.7535612314160092,-0.11164629479922666,-0.7336831477890892,-0.6776525434525651,0.044529452019982436,0.02265384968086014,-3.0478065411163957,0.03464506956387274,1.493063151647536,1.0,0,init,1
2026-01-14 21:24:23.535,0.2903368890288384,0.7535949363254514,-0.11160592822320681,-0.7336840252454834,-0.6776537888295886,0.044493857495296274,0.022658116198761066,-3.047848770138481,0.0345870438098346,1.4930603356629568,1.0,0,init,1
2026-01-14 21:24:23.585,0.2903636668787692,0.7535765727928775,-0.11159949718084929,-0.7336692889327013,-0.677670408736011,0.044489505285889665,0.022646755175276645,-3.0478706145595877,0.034593995359950586,1.4931047537256137,1.0,0,init,1
2026-01-14 21:24:23.635,0.29033564123884886,0.753599377965412,-0.11160165088665848,-0.7336558261603922,-0.6776836471339555,0.044494168165834194,0.022677569256059592,-3.0478183710224744,0.03455725338320696,1.493141700967284,1.0,0,init,1
2026-01-14 21:24:24.236,0.2913347266383683,0.7549502753479744,-0.1069072098718576,-0.7336567334890182,-0.6778446551201011,0.04161403699382847,0.023295769066746345,-3.0508308014149517,0.029483283072441635,1.493094636261792,1.0,0,init,1
2026-01-14 21:24:24.285,0.2914482208536101,0.7551267816236186,-0.10628986592143264,-0.7336548301389055,-0.6778673424595969,0.04123323684726169,0.023372556978536765,-3.0512361780281214,0.028818929581441683,1.4930945575743433,1.0,0,init,1
2026-01-14 21:24:24.335,0.29145024646974865,0.7551449924877464,-0.10620992542715593,-0.7336568526030494,-0.6778674741485567,0.04118574138565312,0.023388989430020293,-3.0512767729586585,0.028727083404109496,1.4930872656938954,1.0,0,init,1
2026-01-14 21:24:24.385,0.2914531301296837,0.755129248677848,-0.10621407094197878,-0.7336615212757868,-0.6778613582813767,0.04120169315948295,0.02339170000271651,-3.051251287590021,0.028747494105165042,1.4930732175128132,1.0,0,init,1
2026-01-14 21:24:24.435,0.2914622510288688,0.7551569430407326,-0.10621137383226735,-0.7336591401382125,-0.677864366249567,0.04118706518624136,0.02340497216567581,-3.051251612822659,0.028707683396928276,1.4930790719767928,1.0,0,init,1
2026-01-14 21:24:24.485,0.29145203976214457,0.7551347178882966,-0.10623185039604502,-0.7336630811935441,-0.6778597298033477,0.04121016192619138,0.023375041359207684,-3.0512642781070705,0.028782724297822207,1.493070108497762,1.0,0,init,1
2026-01-14 21:24:24.535,0.29144816260878703,0.7551419341504158,-0.10621056857012201,-0.7336592730781974,-0.6778643744520814,0.041194883886765586,0.023386800050784008,-3.0512676485140537,0.028743817854147185,1.4930803061131084,1.0,0,init,1
2026-01-14 21:24:24.585,0.29146077014728694,0.7551420816236231,-0.1062228008748554,-0.7336644190216872,-0.6778589244714699,0.04118740991785832,0.023396496323396375,-3.0512638053177223,0.028720374886678147,1.4930642947017636,1.0,0,init,1
2026-01-14 21:24:24.635,0.2914639404511593,0.7551666154596199,-0.10620306712487214,-0.7336421909806519,-0.6778837479590488,0.041176339888030704,0.023393779077501453,-3.0512819175107375,0.028704816949676037,1.4931300397291347,1.0,0,init,1
2026-01-14 21:24:24.685,0.29147879747779765,0.7551587290113175,-0.1062037193966685,-0.7336460633575989,-0.6778795888836188,0.04117782173791836,0.02339024779249757,-3.0512852468113234,0.028712295403593654,1.4931189517165526,1.0,0,init,1
2026-01-14 21:24:24.736,0.2914439681389968,0.755132518159017,-0.10623309421742969,-0.7336483779805433,-0.6778748784898099,0.04121477499126058,0.02338907696688945,-3.0512367817145427,0.028768538342764896,1.4931121199524329,1.0,0,init,1
2026-01-14 21:24:34.135,0.2935167189476168,0.7580818847300455,-0.10184587138479237,-0.7336925248354419,-0.6780021947459064,0.03773196799346984,0.024178534109167465,-3.0548177614640104,0.022583046832235932,1.4929191491410998,1.0,0,init,1
2026-01-14 21:24:34.186,0.29375960790600564,0.7584282164719904,-0.10059870781207626,-0.733684905371571,-0.6780462120954086,0.036974632639949746,0.02434482355898208,-3.055603467322137,0.02124322662157133,1.4929276842953922,1.0,0,init,1
2026-01-14 21:24:34.235,0.293948169171306,0.7587233874021899,-0.09966262664770006,-0.73368561623313,-0.6780718062162276,0.03639691486274728,0.02448074214048407,-3.0561896752655953,0.0202097594373503,1.4929139472204884,1.0,0,init,1
2026-01-14 21:24:34.285,0.2940428418743659,0.7588579967749477,-0.09916098495012617,-0.7336837229926287,-0.6780884762446113,0.03608355871316723,0.024539555630250634,-3.0565294382007235,0.019669127844022676,1.4929145779703183,1.0,0,init,1
2026-01-14 21:24:34.335,0.29408660373168294,0.7589156960549881,-0.09905548351733177,-0.7336743332166225,-0.6781024871488913,0.035994465608786906,0.02456396033155345,-3.056614504540038,0.01950390245100737,1.4929400714391268,1.0,0,init,1
2026-01-14 21:24:34.385,0.29433838547425695,0.7592286846575503,-0.09830653633655212,-0.7336946214786446,-0.6781032614117525,0.03549821353193014,0.024658591040332113,-3.057151013735077,0.018648635560621,1.4928722663330543,1.0,0,init,1
2026-01-14 21:24:34.435,0.29430362619479405,0.7592049894460629,-0.09815679951457659,-0.7336842361346639,-0.6781163834202575,0.03544772481270319,0.024679363649175525,-3.0571888916506675,0.018544975125703952,1.4929009369884847,1.0,0,init,1
2026-01-14 21:24:34.485,0.2942576823107752,0.7591295894404594,-0.09826446119573977,-0.7336724267338869,-0.67812482658394,0.0355383213802187,0.024668148175073838,-3.057081830535949,0.018691894002883413,1.4929366025696653,1.0,0,init,1
2026-01-14 21:24:34.536,0.2942586720896293,0.7591375879586089,-0.09825355664413714,-0.7336729953187427,-0.6781252832244913,0.03553108229094935,0.024649105114816387,-3.0571196482751315,0.018707119461555833,1.4929367907108952,1.0,0,init,1
2026-01-14 21:24:34.585,0.29423181116775815,0.7591366345698046,-0.09826621156571048,-0.7336777080696276,-0.6781198610266361,0.035525840831913603,0.024665550796595107,-3.0571027614743183,0.01867772115846375,1.4929213313760548,1.0,0,init,1
2026-01-14 21:24:34.635,0.29424901327900377,0.7591347701539024,-0.09825282438737266,-0.7336777954395735,-0.678119348631574,0.035534879370228915,0.024664019108021722,-3.0570927208771717,0.018693095412143913,1.4929212033276351,1.0,0,init,1
2026-01-14 21:24:34.685,0.2942322386340163,0.7591029494649386,-0.09830045019554387,-0.7336844679669695,-0.6781122031084386,0.0355577330504806,0.024629029208548307,-3.057113195190841,0.01877492539706177,1.4929048992717922,1.0,0,init,1
2026-01-14 21:24:34.735,0.294243468579265,0.7591249026589346,-0.09826920364422198,-0.7336883012314601,-0.678107590107407,0.03554566992336621,0.024659242172423875,-3.0570853486582017,0.01871673857488513,1.492890710691133,1.0,0,init,1
2026-01-14 21:24:34.785,0.29426531874795003,0.7591209337415252,-0.09826467987768582,-0.7336913724783334,-0.6781045671033886,0.03553982087484532,0.024659423281358814,-3.0570931213311083,0.018708276107894127,1.4928816627549402,1.0,0,init,1
2026-01-14 21:24:34.836,0.2942356767068882,0.7590994438084211,-0.0982798257099139,-0.7336913844456907,-0.678103712125953,0.03555915498903521,0.024654705182460792,-3.0570737561761714,0.018743094496178194,1.4928820434471601,1.0,0,init,1
2026-01-14 21:24:34.885,0.2942275911108393,0.7591252305999316,-0.0982813095282588,-0.7336803359729375,-0.678116085400231,0.035546881260740106,0.024660871045831728,-3.057081090851812,0.018715321429124805,1.492914002716688,1.0,0,init,1
2026-01-14 21:24:38.085,0.29552117046916104,0.7609364083115135,-0.09237693120213636,-0.7336893420192749,-0.6782604632007786,0.03183829697954773,0.025475798543534774,-3.0609272839693116,0.0121606842054366,1.4928134167627305,1.0,0,init,1
2026-01-14 21:24:38.135,0.29623706482086604,0.7619321551642771,-0.08887248436014655,-0.7336941544504745,-0.6783356598217729,0.02966764528481415,0.025950937605756185,-3.063180263407742,0.008327159312034755,1.4927532980250116,1.0,0,init,1
2026-01-14 21:24:38.186,0.2969738573914737,0.7630526365770068,-0.08474810949555221,-0.7336699971608789,-0.6784459512814028,0.027157826218640654,0.026492997771237425,-3.065795048672284,0.0039016403180172723,1.4927694966271359,1.0,0,init,1
2026-01-14 21:24:38.235,0.29777317585793023,0.7642232762099335,-0.08037404833758229,-0.7336413715656931,-0.678554923262774,0.024493584954622172,0.02708538977254152,-3.068545273636946,-0.0008188347274622593,1.492790654655691,1.0,0,init,1
2026-01-14 21:24:38.286,0.29864428855585795,0.7654805430414152,-0.07571329880775353,-0.7335935790828002,-0.6786785956676068,0.021634314439152955,0.02770886049407525,-3.071514526768726,-0.005869266432134538,1.4928614753256662,1.0,0,init,1
2026-01-14 21:24:38.335,0.2994982487913721,0.7666986005562412,-0.07107738266494755,-0.7335694087208599,-0.678763736000019,0.018791817655687777,0.028329858266856738,-3.074464028665461,-0.01088857090083642,1.4928595188568783,1.0,0,init,1
2026-01-14 21:24:38.386,0.30033848648709066,0.7678457650123449,-0.06645326880140726,-0.7335382349879093,-0.6788437463769574,0.01597523079994528,0.028941627746351624,-3.077391540448293,-0.01585746537805422,1.4928757934066779,1.0,0,init,1
2026-01-14 21:24:38.435,0.3011197423049497,0.7690502069727869,-0.06177182579440153,-0.7334835943884264,-0.6789365605540296,0.013133048930607145,0.029571718446606436,-3.0803272202545506,-0.020890409181777404,1.4929554346126546,1.0,0,init,1
2026-01-14 21:24:38.485,0.3018455585906069,0.7701226151627331,-0.05725567077753321,-0.733426388774595,-0.6790194174018594,0.0104120197674564,0.03016542531870035,-3.083151947258918,-0.02569574653640583,1.4930439264339175,1.0,0,init,1
2026-01-14 21:24:38.535,0.30256999554015207,0.7712352131010158,-0.05270884241828068,-0.733345451105411,-0.6791168979340013,0.007644765461485128,0.0307611092865589,-3.0860377145331928,-0.030573032878565998,1.493198656352097,1.0,0,init,1
2026-01-14 21:24:38.585,0.3029946181395106,0.7724809558101319,-0.04811006770347015,-0.7331375546873806,-0.679338638140257,0.004872203122341644,0.031378372702927274,-3.088906029282893,-0.035496545625102245,1.4937209798120805,1.0,0,init,1
2026-01-14 21:24:38.635,0.30287581067506697,0.7738482995789583,-0.04342704140501444,-0.7326998735855863,-0.6797964095752177,0.0020773000208894766,0.031990961238014634,-3.0918275724155206,-0.0404616456097096,1.4949164335709808,1.0,0,init,1
2026-01-14 21:24:38.685,0.3021463167405299,0.7755556149679482,-0.038485154031543845,-0.731955192494187,-0.6805690762987859,-0.0008748623685157008,0.03265827892665783,-3.0949088855556144,-0.04574910654853292,1.4970022948454338,1.0,0,init,1
2026-01-14 21:24:38.735,0.3006793657866616,0.7775305591556301,-0.0333502709031237,-0.730895570824457,-0.6816637497471572,-0.0039115237855154306,0.033330118684332104,-3.0981331014399203,-0.051180038725527975,1.5000061363648212,1.0,0,init,1
2026-01-14 21:24:38.785,0.29876157710845297,0.7796372084526346,-0.028348870124415615,-0.7296365626617372,-0.6829539818390508,-0.006857803002369506,0.034019342370647715,-3.1012409370047083,-0.05650476143827238,1.5035848898818909,1.0,0,init,1
2026-01-14 21:24:38.835,0.2966128755852893,0.781675356602195,-0.023694354407461427,-0.7283117918123524,-0.6843018845718855,-0.009590328832296704,0.03465386372881701,-3.1041610372864303,-0.061435546674864096,1.5073562648772665,1.0,0,init,1
2026-01-14 21:24:38.885,0.2942880529748183,0.7836040442405114,-0.01963207065661904,-0.726954648310193,-0.6856774226965502,-0.011961125334587543,0.03521850060906357,-3.106708695308486,-0.06573478322865137,1.5112257117168808,1.0,0,init,1
2026-01-14 21:24:38.935,0.2919050975943712,0.7853761473626342,-0.016109959282637032,-0.7256361603723049,-0.6870075310304283,-0.013987354386299172,0.03573750110018249,-3.1088618890644693,-0.06945916341013156,1.5149828267515273,1.0,0,init,1
2026-01-14 21:24:38.985,0.28950076709728256,0.7870488241189373,-0.012998841388675936,-0.7243210314300133,-0.6883330369357148,-0.015787549675144372,0.036158359562796775,-3.1108602853680702,-0.07271255176259307,1.5187385550704797,1.0,0,init,1
2026-01-14 21:24:39.035,0.28674571537739585,0.7886960357536016,-0.010436476913336962,-0.7229001631976514,-0.6897684790912924,-0.01724654144138963,0.036569879808456225,-3.1124250315448605,-0.07545613882447987,1.5227973671231596,1.0,0,init,1
2026-01-14 21:24:39.085,0.28372923289123214,0.7902367847719729,-0.008436068255060658,-0.7214374530373722,-0.6912535610324348,-0.018347390671289706,0.036876672443189415,-3.1136620979628655,-0.07753290813607094,1.5269869706379469,1.0,0,init,1
2026-01-14 21:24:39.135,0.28057188279988876,0.7916943160451847,-0.006996530767090253,-0.7199453449510798,-0.6927735223408513,-0.019130626653253748,0.037115578273477556,-3.11456898437598,-0.07905370614354076,1.5312648704408296,1.0,0,init,1
2026-01-14 21:24:39.185,0.2768964506526022,0.793200436349479,-0.005990238996869263,-0.7182555213235666,-0.694501413140656,-0.01963355617515466,0.03730035798434687,-3.115193643773055,-0.08009974836673492,1.5361135727200792,1.0,0,init,1
2026-01-14 21:24:39.235,0.27329252792729947,0.7945705865340016,-0.005589916629108571,-0.7166430888137134,-0.6961543346762028,-0.019790856977276866,0.03741854549790183,-3.115428338186352,-0.08055120816472597,1.5407394281003737,1.0,0,init,1
2026-01-14 21:24:39.286,0.26981346341292617,0.7957597050236576,-0.005586217134598337,-0.7151104339663471,-0.6977286551058595,-0.01970878545085932,0.03746137814714495,-3.115429569835765,-0.08055074985792486,1.5451377484747753,1.0,0,init,1
2026-01-14 21:24:39.335,0.26657368380571417,0.796856533166935,-0.005577000642221996,-0.7136969692645848,-0.6991736908013995,-0.01963421803072518,0.03751377928198313,-3.115413262668576,-0.0805702015628198,1.5491832411234294,1.0,0,init,1
2026-01-14 21:24:39.385,0.26327052342159135,0.7979819936131021,-0.005535438263685993,-0.712233205024623,-0.7006638639863206,-0.01958584938121361,0.03755537069619605,-3.1154546322442274,-0.08061405190061613,1.553365751895949,1.0,0,init,1
2026-01-14 21:24:39.435,0.2597729209975753,0.7991906847895266,-0.005472911730487362,-0.7106773626244307,-0.7022392616907566,-0.0195867427076577,0.037604057005976396,-3.115565387803402,-0.08074149935735016,1.5578008675819366,1.0,0,init,1
2026-01-14 21:24:39.485,0.256239040264783,0.8003551351138458,-0.005409532706251302,-0.7091260253127586,-0.7038042749244521,-0.01952166384335463,0.03766599876522988,-3.1155637985031284,-0.08079349076658858,1.5622113227589507,1.0,0,init,1
2026-01-14 21:24:39.535,0.2527351746172912,0.8014444248580787,-0.005362485177575177,-0.707580648352045,-0.7053576585226862,-0.01945406170325383,0.03770595608573514,-3.1155890047983146,-0.08081093097127269,1.5665983887487556,1.0,0,init,1
2026-01-14 21:24:39.585,0.2493828916668083,0.8025851169886866,-0.0051353204626055915,-0.7060737687976182,-0.706859333812155,-0.019541565952186323,0.03778680217616064,-3.115770649493138,-0.08110436895045552,1.5708605189992393,1.0,0,init,1
2026-01-14 21:24:39.635,0.2462405796996807,0.8036275255605229,-0.004747356493653654,-0.70466553258058,-0.7082538100849194,-0.019683514670697316,0.03788914017671846,-3.1159883815025147,-0.08150104187338326,1.5748315325572062,1.0,0,init,1
2026-01-14 21:24:39.685,0.24319885034402983,0.8047195994597207,-0.003985820510456817,-0.7032609547454305,-0.709630192222611,-0.020054382296214757,0.038037370668370894,-3.1164670020766696,-0.08228468507365021,1.5787777922646866,1.0,0,init,1
2026-01-14 21:24:39.735,0.2401332124837405,0.8058805964992524,-0.0028682398772238715,-0.7018358247706411,-0.7110119204358223,-0.02062210264906717,0.03825248944852194,-3.1171363261363587,-0.08343939848102236,1.5827646942845448,1.0,0,init,1
2026-01-14 21:24:39.785,0.23698158365282213,0.8071607833913103,-0.0014218033501620098,-0.7003323223919595,-0.7124555828237452,-0.02141237399406195,0.0385122182729109,-3.118073669701526,-0.0849702548909086,1.5869582312912205,1.0,0,init,1
2026-01-14 21:24:39.835,0.23365004042994858,0.8085027618404254,0.0002798251538971286,-0.6987388903173098,-0.7139730652487198,-0.02232422238382826,0.038833675494851144,-3.119114812939014,-0.08675880066152206,1.5913870393742628,1.0,0,init,1
2026-01-14 21:24:39.885,0.23044892623176705,0.8098194677473767,0.0020766400411457997,-0.6971816102563014,-0.7154442469027177,-0.023296288448642583,0.03917416034520356,-3.120218475816312,-0.0886534250146474,1.595703079048481,1.0,0,init,1
2026-01-14 21:24:39.935,0.22730746513748348,0.8110637715514463,0.0037938782468129595,-0.6956835108024516,-0.7168535788022322,-0.02421646659915278,0.039483694121233266,-3.121291333827114,-0.09042522782729633,1.599850080108206,1.0,0,init,1
2026-01-14 21:24:39.985,0.2244136155598145,0.8122140131580462,0.005323183091324707,-0.6942891235687193,-0.7181587999502974,-0.02505160107883677,0.03978653329350727,-3.122244859782448,-0.09206219594886049,1.6037008702448805,1.0,0,init,1
2026-01-14 21:24:40.035,0.22162199195680468,0.813258325844877,0.006574044910913235,-0.6929401072206599,-0.7194235116438193,-0.025721302678755335,0.040027906360481494,-3.123045934348761,-0.093376312701235,1.6074276124577043,1.0,0,init,1
2026-01-14 21:24:40.085,0.21870483632179968,0.8142380978347359,0.007486247204685631,-0.6915819869795403,-0.7207020549031914,-0.026176475709859377,0.0402205850673409,-3.123610978253032,-0.0943202630023036,1.6111800734494817,1.0,0,init,1
2026-01-14 21:24:40.135,0.2155549735167504,0.8152053523695048,0.008124734508057563,-0.6901386934373603,-0.7220645567101599,-0.026471969812282805,0.0403806213150704,-3.1240049360465565,-0.09499630689048116,1.6151668531608143,1.0,0,init,1
2026-01-14 21:24:40.186,0.212294655584825,0.8161502869793414,0.008559010892670832,-0.6886665074665098,-0.7234551109184791,-0.026633942440136518,0.04051884857576824,-3.1242417736494805,-0.09545584109474732,1.6192289894230456,1.0,0,init,1
2026-01-14 21:24:40.235,0.20894743853007586,0.8170713648660508,0.00872310877872548,-0.6871699349767875,-0.7248713015748475,-0.02665765261609365,0.04060106124455232,-3.1243601232827056,-0.09564351578108671,1.6233587134857956,1.0,0,init,1
2026-01-14 21:24:40.285,0.20559160243474073,0.8178906141346757,0.00873816708083,-0.6856843723409377,-0.7262778764818133,-0.02656952427775998,0.04063801225621126,-3.1243771949682166,-0.09561119872889928,1.6274562680629636,1.0,0,init,1
2026-01-14 21:24:40.336,0.20235285032094008,0.8187125542366721,0.008724487322662677,-0.6842384875017423,-0.7276400742406148,-0.026483848277475085,0.040696687344995694,-3.1243620437610646,-0.09561323214824888,1.6314332093673176,1.0,0,init,1
2026-01-14 21:24:40.385,0.19922393300317992,0.8194975235270382,0.008727535524028635,-0.6828533501573922,-0.7289393951279213,-0.026425035915603072,0.040747734737343166,-3.124388229492581,-0.09563984277634824,1.6352370562899337,1.0,0,init,1
2026-01-14 21:24:40.435,0.1959792980872232,0.8202745988945477,0.008735261127293753,-0.6814149602149208,-0.7302837423787495,-0.026332313380580664,0.04081564509612949,-3.124348324031744,-0.09564623380076732,1.639177375755051,1.0,0,init,1
2026-01-14 21:24:40.485,0.19253128457762897,0.8210938732434416,0.008756231160179512,-0.6798677115254228,-0.7317237162813945,-0.02626176256217,0.040873190279909835,-3.1243690274433233,-0.09567069117187833,1.6434104467450217,1.0,0,init,1
2026-01-14 21:24:40.535,0.18898394225476903,0.8219009851797082,0.008742962517913455,-0.6782829049691897,-0.7331933763119166,-0.02616717350626915,0.04092740878167455,-3.1243635099096045,-0.09565872523374858,1.6477381330439913,1.0,0,init,1
2026-01-14 21:24:40.585,0.18506625217947925,0.8228218803195542,0.008775458513275242,-0.6765386569172475,-0.7348019885561896,-0.026103270857268653,0.04098905416118389,-3.124413309751041,-0.09570344743982073,1.6524912826625553,1.0,0,init,1
2026-01-14 21:24:40.635,0.18121199831230866,0.8236522242947771,0.008746066404385772,-0.6748151816357243,-0.7363867964413985,-0.0259814160535557,0.04103562696695308,-3.1243950196324772,-0.09564726562186086,1.6571791542727066,1.0,0,init,1
2026-01-14 21:24:40.685,0.17749752273084268,0.8244446593050705,0.008722744374449115,-0.6731523241535609,-0.7379078282929367,-0.0258748671922116,0.041091077844790366,-3.1243785900710597,-0.09562397343942046,1.6616910585891271,1.0,0,init,1
2026-01-14 21:24:40.735,0.17382364031845432,0.8252360902539914,0.008729336845156505,-0.6714985853200642,-0.7394129476231132,-0.025796241414576575,0.04114239576559322,-3.1244073153592504,-0.09563242151679911,1.6661698852265567,1.0,0,init,1
2026-01-14 21:24:40.785,0.1703264073870011,0.8259681198095152,0.008739218645414243,-0.6699246833694279,-0.7408383672328682,-0.025709135975459194,0.0412125293509769,-3.124387200625746,-0.09565582445831489,1.6704206147901581,1.0,0,init,1
2026-01-14 21:24:40.836,0.16668256225258832,0.826704585664099,0.008734432158209626,-0.6682926493350264,-0.7423116060095871,-0.025624502956802374,0.0412528699178107,-3.1244180773514016,-0.09564003902283433,1.6748246821612511,1.0,0,init,1
2026-01-14 21:24:40.885,0.16279444324014936,0.8274692925593047,0.008736867751950567,-0.6665355713469008,-0.7438901337378754,-0.02551778003279252,0.04131154752493003,-3.1244069143730893,-0.0956251904084683,1.679553868797669,1.0,0,init,1
2026-01-14 21:24:40.935,0.1587925429361567,0.8282516087006254,0.008741846149013549,-0.6647439098080292,-0.7454907705632103,-0.025420809722239215,0.0413863239642205,-3.1243925346966184,-0.09564867830416289,1.6843636899956675,1.0,0,init,1
2026-01-14 21:24:40.985,0.15474296135280632,0.8290466654246784,0.008763004234754762,-0.6629135186476931,-0.747117812012987,-0.02534179116539094,0.04145401533737649,-3.124419005316573,-0.09568684924771637,1.6892684167663548,1.0,0,init,1
2026-01-14 21:24:41.035,0.15076538433061798,0.8297860823186092,0.008776069938853659,-0.661119434955641,-0.7487049685801181,-0.025247205176464362,0.041527597789371755,-3.124409175540953,-0.09571274299108824,1.6940641323075158,1.0,0,init,1
2026-01-14 21:24:41.085,0.14693740091534083,0.8304757442351312,0.008773352775351406,-0.6593721376150498,-0.7502444777602447,-0.025159845145403925,0.04157631440468118,-3.124436841507859,-0.09571026031776779,1.6987285153401268,1.0,0,init,1
2026-01-14 21:24:41.136,0.14299986038627047,0.831192903041039,0.008818278099140736,-0.6575875480893936,-0.7518071073934265,-0.02510049888833481,0.04164918757989524,-3.1244788717254663,-0.09578224923180195,1.7034796054009727,1.0,0,init,1
2026-01-14 21:24:41.186,0.13880830231675675,0.8319241887488653,0.0088311389838642,-0.6554908654261286,-0.7536354445573187,-0.02502963702060044,0.04169963213764083,-3.124572761022581,-0.09581256518504434,1.7090542135989024,1.0,0,init,1
2026-01-14 21:24:41.235,0.1343021390097939,0.8326481398354826,0.00885518810491262,-0.6533602847133356,-0.7554830903070066,-0.024906586625084666,0.04177679454160385,-3.124556102902786,-0.09581581436023844,1.714700344576456,1.0,0,init,1
2026-01-14 21:24:41.285,0.12981772199235478,0.8333709146266541,0.008875137103497521,-0.6513196971234794,-0.757242338011099,-0.024809691522537296,0.04184701744473864,-3.124576066544765,-0.09584140723120978,1.7200959592343728,1.0,0,init,1
2026-01-14 21:24:41.335,0.12535633167825583,0.8340594674665901,0.008887308164782837,-0.6493054478637952,-0.7589696470948093,-0.024705076009629005,0.0419186042531889,-3.12457857516093,-0.09585891684801381,1.7254091238501517,1.0,0,init,1
2026-01-14 21:24:41.385,0.12113184664946273,0.8346936167431511,0.008908137920504211,-0.6473684443388237,-0.7606224315017694,-0.024611623332401026,0.04197477775535599,-3.1246078648826234,-0.0958662648000373,1.73050912081446,1.0,0,init,1
2026-01-14 21:24:41.435,0.11717785504285128,0.8352804990152353,0.00900741152582224,-0.6455600048658005,-0.7621547388730678,-0.02457355467588784,0.042054423567378936,-3.1246743798244725,-0.09597865438110265,1.735257626173994,1.0,0,init,1
2026-01-14 21:24:41.485,0.11343081980113896,0.8358285488323932,0.009193087466775662,-0.6438449418282365,-0.7635985130863896,-0.024586007889879687,0.042148901652219746,-3.124787164401152,-0.09617703562303058,1.7397504179088499,1.0,0,init,1
2026-01-14 21:24:41.536,0.109825769462273,0.8363473946741785,0.009387186751632332,-0.6421870768179002,-0.7649872373477132,-0.024603629104598335,0.042248627173877236,-3.12489425024285,-0.09638877188063441,1.744084266890836,1.0,0,init,1
