timestamp,x,y,z,qx,qy,qz,qw,roll,pitch,yaw,gripper_cmd_0to1,gripper_activated,gripper_last_action,logging_active
2026-01-14 21:27:27.906,0.10677872330356965,0.9721660540257435,0.3786018020899169,0.05246109191996437,0.9652182902304415,0.2533270104291496,0.037774486445454156,2.6254541874162878,0.04635823013178516,3.0207579066032006,1.0,0,init,1
2026-01-14 21:27:27.956,0.115005499977377,0.9711993417903768,0.37838696454765064,0.05654412517331542,0.9650191101107234,0.25304821497311425,0.03882627883808638,2.6256982954453956,0.046336001200846015,3.0123122982717296,1.0,0,init,1
2026-01-14 21:27:28.006,0.12490990588206284,0.9699785971324744,0.3782134247081153,0.06146560014056624,0.9647450715769251,0.2527493213326875,0.04008375522901611,2.625905176946644,0.04628695957061796,3.0021325922079147,1.0,0,init,1
2026-01-14 21:27:28.056,0.13605705567188456,0.9684470806077935,0.3780643364672394,0.06703632962563202,0.9643971453274011,0.2524301757688829,0.041512443387182595,2.626082770251253,0.04624145656492807,2.9906015177679754,1.0,0,init,1
2026-01-14 21:27:28.106,0.14830313508386264,0.9666530313457949,0.3779459762642172,0.07313675900244287,0.9639727006536412,0.2520920200328364,0.04309594311426745,2.6262305127437284,0.04622870279085646,2.977957360471779,1.0,0,init,1
2026-01-14 21:27:28.156,0.1613086201952798,0.9645436513847778,0.377834355803855,0.07963711024227398,0.9634726955258194,0.2517403125859567,0.044778462095034936,2.626347935092079,0.0462063493106735,2.964478609996795,1.0,0,init,1
2026-01-14 21:27:28.206,0.17459266288774397,0.9622215396495133,0.37781949721230385,0.08627051219819766,0.9629054001689036,0.2514108427469725,0.04650996882262077,2.626379315427947,0.04620715700206721,2.9507061053319292,1.0,0,init,1
2026-01-14 21:27:28.256,0.18752286702485577,0.9598048267239749,0.3778378409637768,0.0927466321211725,0.9622966507024604,0.2511149586997513,0.04821302515118854,2.6263296035118557,0.04622679389771771,2.937243034268451,1.0,0,init,1
2026-01-14 21:27:28.306,0.20147110901972917,0.9569701471627248,0.37780912160889923,0.099745117859032,0.9616020725162798,0.2507395480523302,0.05002044220312607,2.6263711741111098,0.046195859252800106,2.9227028098471606,1.0,0,init,1
2026-01-14 21:27:28.356,0.21454800212931333,0.9541111685256256,0.3777849436391232,0.10632635679891339,0.9609015319612166,0.25037500945115204,0.051723363838720844,2.626407773785513,0.046175601338488144,2.9090171274067873,1.0,0,init,1
2026-01-14 21:27:28.406,0.22693281249568634,0.9512249823482616,0.3777292113721281,0.11258031659971486,0.9601977405121503,0.24999898524904762,0.053352402046352325,2.626477481485228,0.04618419855295325,2.8959970716605437,1.0,0,init,1
2026-01-14 21:27:28.456,0.238922733621508,0.9482344668383461,0.3776867044109914,0.11863096442577291,0.9594769968407156,0.24962854788265923,0.0549197131722974,2.626539460017171,0.046177461553387006,2.8833947497329087,1.0,0,init,1
2026-01-14 21:27:28.506,0.2505195569464077,0.9451727186994329,0.3775630816938773,0.12452899389220141,0.9587502081181599,0.24920940051226909,0.056437955401455,2.62670141973211,0.046168611109219077,2.8711076291673043,1.0,0,init,1
2026-01-14 21:27:28.556,0.26160198132469875,0.9418659302065192,0.3770008848724802,0.13024754468173966,0.9580827809615073,0.24854146398099317,0.05779362085582947,2.627411401555894,0.046014551460511956,2.8592576363981714,1.0,0,init,1
2026-01-14 21:27:28.606,0.27232279865059583,0.9380929115081493,0.37557075329216927,0.13594150541870775,0.9575260600982937,0.2473597875374952,0.05896513246436055,2.629216085497876,0.04568426739870466,2.847565758497853,1.0,0,init,1
2026-01-14 21:27:28.656,0.28258047333566694,0.9337976163307059,0.3731225376787746,0.14155524795045973,0.9571109499733736,0.24559066525523335,0.059882938790961265,2.6322944645548234,0.04511524076066784,2.836179229620975,1.0,0,init,1
2026-01-14 21:27:28.706,0.29207477295751855,0.9292691591109304,0.370024564211478,0.14694610200141403,0.9568031475869023,0.24344344120721445,0.06057945862729462,2.6362175115293676,0.044393684303794444,2.825348953035556,1.0,0,init,1
2026-01-14 21:27:28.756,0.3015790519007412,0.9239892832432324,0.3658256267726496,0.1525835312140106,0.9566008453768393,0.24063660441302118,0.06105008798642841,2.6415443726014205,0.04338037053381104,2.814166063153644,1.0,0,init,1
2026-01-14 21:27:28.806,0.3094969438102691,0.9185152907079176,0.36054501757171276,0.15760424296833195,0.9566304646800518,0.23724337444310642,0.06111168404859565,2.6482278282132024,0.042153955739025764,2.8044111556639333,1.0,0,init,1
2026-01-14 21:27:28.856,0.3158542644797067,0.912644759174033,0.3538526671085368,0.1621463580271218,0.9569317359814308,0.23304066509637716,0.06068162540295164,2.6567488073159438,0.04057408768641826,2.7958585063113834,1.0,0,init,1
2026-01-14 21:27:28.906,0.3210203282836392,0.9056903735390563,0.34475189226553726,0.16658470873347625,0.9575939119830582,0.2274018307412103,0.059597331523412865,2.6684241691523884,0.0383861744954376,2.787860526135456,1.0,0,init,1
2026-01-14 21:27:28.956,0.3241371830555518,0.898417397872602,0.3341783967948866,0.17031835241850946,0.9585534711814849,0.22093093285170987,0.05793465823359855,2.682017492246697,0.035817408328359474,2.7815185385774543,1.0,0,init,1
2026-01-14 21:27:29.006,0.3253724513097072,0.8906993647171634,0.3221601684696002,0.17345549192519166,0.9597918886251153,0.21355962199834014,0.05572262289546463,2.6976441164974077,0.03288399059205544,2.7765859743541896,1.0,0,init,1
2026-01-14 21:27:29.056,0.3248737965801053,0.882998675114991,0.30964390344832127,0.1758429178547389,0.961184051540636,0.20585589231948123,0.05317742849752851,2.7140707063839744,0.029834416522414836,2.7732295394859547,1.0,0,init,1
2026-01-14 21:27:29.106,0.3225663937250903,0.8754976205836342,0.29684597433197984,0.17745030003835804,0.9627005319457466,0.19796019333108958,0.05030744143753671,2.7310050033963726,0.026608949766472493,2.771492525777488,1.0,0,init,1
2026-01-14 21:27:29.156,0.3190546618784579,0.8682839682988737,0.28430448340933123,0.17839410876751668,0.9642518677871008,0.19013931022516506,0.047338357948173926,2.747815010124408,0.023454885046971775,2.7710352299802357,1.0,0,init,1
2026-01-14 21:27:29.206,0.3146644091637244,0.8611902909859211,0.27191717311728486,0.17893314043174088,0.9658015265005045,0.1823464404069818,0.04427322368467387,2.7645844722855157,0.020264038391140042,2.771342956213826,1.0,0,init,1
2026-01-14 21:27:29.256,0.31019504840978696,0.8539479364578654,0.25976068826501353,0.17945135119457792,0.9672725564461089,0.17458521390051474,0.04124338962743869,2.7812476916453375,0.017128930369924786,2.7715976716321604,1.0,0,init,1
2026-01-14 21:27:29.306,0.30569690555899254,0.8466861405588566,0.24795478480544172,0.17993052927089837,0.9686520696320899,0.1669569823328837,0.038256224121841605,2.797602052822253,0.014033085529455083,2.771834405119722,1.0,0,init,1
2026-01-14 21:27:29.356,0.30105261990655396,0.8391984576580288,0.23619947093352786,0.18043170707942718,0.9699716400522903,0.15924306808099004,0.03522870765195645,2.8141165369031853,0.010876911915598274,2.771964737675577,1.0,0,init,1
2026-01-14 21:27:29.406,0.29634660915928035,0.8316353861506082,0.22468714936581938,0.18085000684436714,0.9712219975154021,0.15159736661591725,0.03223887407624336,2.830457501257028,0.007789516549082711,2.7721705092234745,1.0,0,init,1
2026-01-14 21:27:29.456,0.29156129680253634,0.8239281322753527,0.21307168985195535,0.1813099996938411,0.9724172786454319,0.1438024353295942,0.02919211873279552,2.8470933978891018,0.004628218823953423,2.772233783127809,1.0,0,init,1
2026-01-14 21:27:29.506,0.28689135742559835,0.8160977310858966,0.20126432704134598,0.18186190758118753,0.9735480211865841,0.13583358473885335,0.026071714013675654,2.864080132144319,0.0013582219231158463,2.7720534693928105,1.0,0,init,1
2026-01-14 21:27:29.556,0.2826027120027751,0.8080794266666393,0.18895698493861068,0.18265811827767076,0.9746077682881129,0.1274875527104956,0.022861183775411086,2.881828319149803,-0.0020118997215677436,2.7713198002304824,1.0,0,init,1
2026-01-14 21:27:29.606,0.2794422967626603,0.8003079800750612,0.17644877575301518,0.18394425012975943,0.9755019325796818,0.11905492310603695,0.019657509041644018,2.8997295254739672,-0.005447087926845711,2.7695039652606153,1.0,0,init,1
2026-01-14 21:27:29.656,0.27773233019796756,0.793192568152275,0.16406704302445202,0.18573487520143867,0.9761905251545951,0.11080999657417356,0.016606004683049604,2.917193656755458,-0.00874142423027119,2.7665422076273227,1.0,0,init,1
2026-01-14 21:27:29.706,0.27768156145728434,0.7871744477403053,0.15225141033667253,0.18801815772467537,0.9766412369012913,0.10310990845180229,0.013762758763986895,2.9335014297302378,-0.011890794782248106,2.762457809366522,1.0,0,init,1
2026-01-14 21:27:29.756,0.279104047459809,0.782599814455385,0.141259538365676,0.19054023459023084,0.9768922023229305,0.09617346018484353,0.01125653583606448,2.948176463107133,-0.014657508000180721,2.7577568304625086,1.0,0,init,1
2026-01-14 21:27:29.806,0.28160479874701033,0.7791257729881357,0.13083901075932158,0.19323839020487943,0.9769910311646316,0.08981703544767798,0.008963800437709439,2.9616312033609025,-0.01719794117780934,2.752606357384958,1.0,0,init,1
2026-01-14 21:27:29.856,0.28435026326797697,0.7763382294020906,0.12042809998281898,0.19583336182128452,0.9770413451242687,0.08363656641902938,0.006665513721315011,2.9747438297453845,-0.019733975769718557,2.7476150867549105,1.0,0,init,1
2026-01-14 21:27:29.906,0.2865988914086995,0.7742462555267655,0.11072407858341732,0.19790448449680967,0.9771054867780491,0.07796173249151563,0.004544336167700624,2.9867854576455577,-0.021979130930372598,2.7436210243915147,1.0,0,init,1
2026-01-14 21:27:29.956,0.288465750150889,0.7724695005472714,0.10025565334256334,0.19970466528883035,0.9772095182422802,0.0719360037240207,0.0021944217427105044,2.999604187812682,-0.024445526099245767,2.7401583099857496,1.0,0,init,1
2026-01-14 21:27:30.006,0.2894130058305689,0.7708160837065727,0.09029329508481168,-0.20098524752452746,-0.9773588196362677,-0.06614122072042476,8.293562579677401e-05,3.0119292904669077,-0.026752125829411826,2.7377018432757447,1.0,0,init,1
2026-01-14 21:27:30.056,0.28956965213030805,0.7692842851374122,0.08093210523690325,-0.20180072550498182,-0.9775413617533575,-0.06069682625896462,0.002290966857796271,3.023526404465949,-0.028980413305965343,2.736151025695436,1.0,0,init,1
2026-01-14 21:27:30.106,0.2891016678448261,0.7682426787822011,0.072519473376157,-0.20211527514272792,-0.9777614886717202,-0.05580055333838611,0.004264395803742178,3.033938072329602,-0.030900329554986217,2.735575205535813,1.0,0,init,1
2026-01-14 21:27:30.156,0.2884917818492792,0.7673688423846526,0.06509018373530412,-0.20226854215701107,-0.9779564700902339,-0.05150032484087713,0.006024616470042246,3.0430881308127398,-0.032623202925492915,2.7352968489826956,1.0,0,init,1
2026-01-14 21:27:30.206,0.2880263621671576,0.7666304393557606,0.05915474450938979,-0.20238527999067993,-0.9780978959697527,-0.04805872982039964,0.0074204333220441055,3.050405069230713,-0.033975115336967864,2.7350673666634697,1.0,0,init,1
2026-01-14 21:27:30.256,0.2876071842726358,0.7660524715852388,0.054588009657031034,-0.20246736399310966,-0.9781987416391145,-0.045405171734105576,0.00851814258691764,3.056054612684479,-0.0350581846739733,2.7348975387311056,1.0,0,init,1
2026-01-14 21:27:30.306,0.2873357552139461,0.7655720795843319,0.05101267763426054,-0.20256742568120253,-0.978264296352588,-0.043334435538945344,0.009355812695190818,3.0604568357624258,-0.03586889600594312,2.734683584335937,1.0,0,init,1
2026-01-14 21:27:30.356,0.28704770176265865,0.7651414550803685,0.0480910589905407,-0.2026206920489933,-0.9783204416066,-0.041629901377523294,0.010045894661600519,3.064079628845279,-0.03653449403492382,2.734562694054789,1.0,0,init,1
2026-01-14 21:27:30.406,0.2869051320069943,0.7648219208882021,0.045652619918681275,-0.2027157642433528,-0.9783533067820949,-0.04022822559410937,0.010621483009597607,3.0670638846273066,-0.03710142824064943,2.7343562261998238,1.0,0,init,1
2026-01-14 21:27:30.456,0.2870350390301945,0.7643244153085899,0.04326700272726258,-0.2030055885077426,-0.9783433979829153,-0.038831396144322676,0.011182545834953036,3.070040293378162,-0.037655618940126104,2.733748693210359,1.0,0,init,1
2026-01-14 21:27:30.506,0.28731759513534577,0.7635695236633625,0.040637297997525246,-0.20346419238768174,-0.9783020959781316,-0.03725458667921301,0.0118079292081331,3.0734024227745813,-0.03827273555058572,2.7327908033069854,1.0,0,init,1
2026-01-14 21:27:30.556,0.28781169410338847,0.7622419424254608,0.03714390635675702,-0.2042596561282215,-0.9782050490369476,-0.035103728965784904,0.012672929010309662,3.0780009687049654,-0.03914399314845974,2.731132186976898,1.0,0,init,1
2026-01-14 21:27:30.606,0.2889295038185368,0.7607350203586123,0.03281904751760087,-0.2054229971270894,-0.9780361555376966,-0.032545439571289234,0.01369178861499786,3.0834770869825268,-0.04016408968471256,2.728706489337617,1.0,0,init,1
2026-01-14 21:27:30.656,0.29059275569310866,0.7590080604206676,0.027327737086594472,-0.20696577561460375,-0.9777930685362097,-0.02935459457419372,0.01497299649947264,3.0903185391115198,-0.04144363999583906,2.7254805031770144,1.0,0,init,1
2026-01-14 21:27:30.706,0.29241193290652767,0.7569619950522046,0.0206797644246349,-0.20873214815862215,-0.97749966179328,-0.025523282078501363,0.016548824461321845,3.098550094647164,-0.04302126923239578,2.7217644385958444,1.0,0,init,1
2026-01-14 21:27:30.756,0.2941168284829246,0.7547790215824589,0.013661330992398496,-0.2104884558118771,-0.9771915105007671,-0.021437182546286675,0.01821562460191553,3.1073237068866804,-0.04463969046390721,2.718038075017884,1.0,0,init,1
2026-01-14 21:27:30.806,0.2949791299200827,0.7530233823007704,0.00729735268651549,-0.21166261692643226,-0.9769822753547761,-0.017737000470557374,0.019747634105547012,3.1152638311366037,-0.04611103556366937,2.7154955349241394,1.0,0,init,1
2026-01-14 21:27:30.856,0.2949025792730458,0.7518692422900497,0.0020454284416481783,-0.2121414842752291,-0.9769020519327779,-0.014673978157126063,0.021048656585987653,3.12182970860177,-0.04736858277819141,2.714386230072342,1.0,0,init,1
2026-01-14 21:27:30.906,0.2942995490626392,0.7510536214893956,-0.0023170291334500825,-0.21219625798419048,-0.9769014051248763,-0.012112217445619657,0.02212887143754145,3.1273018791317324,-0.04839467383896787,2.7141565669966154,1.0,0,init,1
2026-01-14 21:27:30.956,0.29382283892507705,0.7503529434185938,-0.005843415990289091,-0.2122421573307838,-0.9768952112640071,-0.010025230427207111,0.022989293506045713,3.1317519863486885,-0.0491916512848943,2.713960419690973,1.0,0,init,1
2026-01-14 21:27:31.006,0.29347008190979823,0.7498112165267914,-0.008633040045612966,-0.21230285129059298,-0.9768813339662109,-0.008399904528975414,0.02366009903159679,3.135219498110561,-0.04981346404806182,2.7137525450261117,1.0,0,init,1
2026-01-14 21:27:31.056,0.2931995249961496,0.7494044234503672,-0.010619169387294708,-0.21234195760226873,-0.9768696915444119,-0.007230125127642366,0.024170727630761123,3.1377268907525573,-0.05031504727868144,2.713609651393946,1.0,0,init,1
2026-01-14 21:27:31.106,0.29296392507319263,0.7491127690046266,-0.012004900800132529,-0.21235741392226176,-0.9768636881338129,-0.006387384919729775,0.024512545191011224,3.139521631378397,-0.050625269652478905,2.7135320438629367,1.0,0,init,1
2026-01-14 21:27:31.156,0.29285330780105756,0.7489111889352466,-0.012922088454353997,-0.21237487404214955,-0.9768578936926828,-0.005844541801146725,0.024726700892178124,3.140675556136267,-0.05081327729302404,2.7134663181424226,1.0,0,init,1
2026-01-14 21:27:31.206,0.29281809964617167,0.7487738776562152,-0.013520939684017907,-0.2124241900045283,-0.9768454982975117,-0.005497538966484666,0.0248719324162426,3.141418735715688,-0.050949731282538,2.713345764132724,1.0,0,init,1
2026-01-14 21:27:31.256,0.2928144485330428,0.7485867766389587,-0.014142689604621478,-0.21250423271496557,-0.9768260259043707,-0.00512325239603251,0.02503234865097196,-3.1409619225765977,-0.051104166283028524,2.713160453868274,1.0,0,init,1
2026-01-14 21:27:31.306,0.29273977693293196,0.7483669424482712,-0.015206857416665664,-0.21256968005859095,-0.9768080356865415,-0.004503204633130739,0.025296515294027412,-3.139633057291742,-0.05135674108193421,2.7129906471947454,1.0,0,init,1
2026-01-14 21:27:31.356,0.29250324906716535,0.7479430072221949,-0.017003014876942557,-0.21261967558847208,-0.9767898665187138,-0.0034353146971320813,0.025741577883606676,-3.137351787935112,-0.0517721807458525,2.712825706511749,1.0,0,init,1
2026-01-14 21:27:31.406,0.2922040602284614,0.7473938547790482,-0.019609531183716722,-0.2127136185071357,-0.9767564097411742,-0.0019045714228898922,0.02638569951370463,-3.134077685875268,-0.05237900635097335,2.712540763332846,1.0,0,init,1
2026-01-14 21:27:31.456,0.2917485995461037,0.7464775599814837,-0.023742294330225344,-0.2128696218314374,-0.9766965059124034,0.0005366137515558293,0.02738925857932521,-3.1288653373588557,-0.053298760002659325,2.7120678836993366,1.0,0,init,1
2026-01-14 21:27:31.506,0.29114706515253264,0.7450784755479047,-0.029734170781911873,-0.213234068457074,-0.9765657605304098,0.004061206735319339,0.028879993226446223,-3.1213124633168956,-0.05470172621705896,2.711084119725986,1.0,0,init,1
2026-01-14 21:27:31.556,0.2902533361758672,0.7434496251700794,-0.037158543964059904,-0.21448702486654575,-0.9762078331651134,0.008451092474662135,0.03069465209050156,-3.1118738887879243,-0.05633321044557335,2.7081993385639875,1.0,0,init,1
2026-01-14 21:27:31.606,0.28928812166576423,0.7419207607763397,-0.045301353628218466,-0.2167033306277726,-0.9756029714669688,0.013192959637668943,0.03262597700682624,-3.1016324050246875,-0.05797455406927467,2.703286086191515,1.0,0,init,1
2026-01-14 21:27:31.656,0.28886028987964985,0.7410296180100393,-0.05320710497159148,-0.22248487283588708,-0.9741713028822455,0.017677967678343096,0.03432555110513338,-3.0917686797408837,-0.05904607701517111,2.6910554086412586,1.0,0,init,1
2026-01-14 21:27:31.706,0.2894930157066773,0.7415774648838603,-0.05912106580458239,-0.23381993659847022,-0.9714203002232881,0.020811239880057328,0.035181385104042256,-3.084578641290836,-0.05865328190712133,2.6675079981204473,1.0,0,init,1
2026-01-14 21:27:31.756,0.2920002437374652,0.7445065467398917,-0.061357114537732016,-0.25035806795502513,-0.9672936187399782,0.02128465435691729,0.034797362596200664,-3.0828639833218663,-0.05669132558235514,2.6333960370821043,1.0,0,init,1
2026-01-14 21:27:31.806,0.29527289507296306,0.7486784373066661,-0.06009510318480665,-0.2667060450679377,-0.9629943921332553,0.019506186207210018,0.03360349600519109,-3.085988760786011,-0.054341862511704704,2.5997155141315424,1.0,0,init,1
2026-01-14 21:27:31.856,0.29803416296416263,0.7526809178107142,-0.05681639497451618,-0.2783783580974491,-0.9597846618863692,0.01666776716078904,0.03226574171641139,-3.0915432529465647,-0.05268080052809793,2.5756804736982257,1.0,0,init,1
2026-01-14 21:27:31.906,0.3001322041100012,0.7557394910403944,-0.053670745067583916,-0.2830140630804929,-0.9585041291326909,0.014026056848771786,0.03124330749981157,-3.0969448848461343,-0.051977937506507116,2.566215042364278,1.0,0,init,1
2026-01-14 21:27:31.956,0.3015620965460333,0.7577901075117369,-0.05093746566567589,-0.28291336343405526,-0.9585873625981451,0.011831300552171442,0.030501104648960782,-3.101587317638618,-0.05180464929190283,2.566579668876777,1.0,0,init,1
2026-01-14 21:27:32.006,0.30233686470400734,0.7588553396081258,-0.04909978382250793,-0.2828967203799626,-0.9586224134730117,0.010503371912128707,0.030036530490634344,-3.1044024558059187,-0.05166762886764073,2.566706975187331,1.0,0,init,1
2026-01-14 21:27:32.056,0.302607492368541,0.7592228302762921,-0.04781264144387096,-0.28289440071530864,-0.9586397407946735,0.009698557962350194,0.02977487844641039,-3.106096785754832,-0.051622352758888,2.5667658398294266,1.0,0,init,1
2026-01-14 21:27:32.106,0.3027611139873154,0.7594593834945935,-0.04688977875790806,-0.2828779821368354,-0.9586560090326192,0.00913873895587806,0.029583559930126412,-3.1072814204184036,-0.05157347860735247,2.566837994731281,1.0,0,init,1
2026-01-14 21:27:32.156,0.3028362512266779,0.759602576713372,-0.04638254362309868,-0.2828764536354848,-0.9586621100019092,0.00882785161307455,0.02949474294169075,-3.107928943679394,-0.051579469943340756,2.5668609882095987,1.0,0,init,1
2026-01-14 21:27:32.206,0.3028280553595592,0.7596216197886572,-0.0462433390474242,-0.28287880047808395,-0.958662761815629,0.008763252616005083,0.02947030287762651,-3.10806675697786,-0.05156914103938957,2.566860582636471,1.0,0,init,1
2026-01-14 21:27:32.256,0.3027252110085906,0.759630063791256,-0.046292653168295006,-0.2828370086131706,-0.9586743958581179,0.008793646709333459,0.02948391192460211,-3.1080029032723053,-0.05157947310126979,2.5669455544701583,1.0,0,init,1
2026-01-14 21:27:32.306,0.30257106856614774,0.759687639361168,-0.04622439863000272,-0.28276173717879544,-0.958697271944396,0.008762883429786957,0.029471216941251835,-3.108073244672869,-0.051575196252598085,2.56710485211215,1.0,0,init,1
2026-01-14 21:27:32.356,0.3023588073469158,0.7598510512369493,-0.045976813722521576,-0.28264071338685054,-0.9587360154710742,0.008621931613574125,0.02941329750420998,-3.1083833419636067,-0.051548183568205556,2.567367501943978,1.0,0,init,1
2026-01-14 21:27:32.406,0.302187507341516,0.760142055812321,-0.04532010505247669,-0.2826880816430075,-0.9587285303005726,0.00822822962767233,0.029314670762175025,-3.1091928086976797,-0.05158044648685999,2.567292705064617,1.0,0,init,1
2026-01-14 21:27:32.456,0.3017550250895928,0.7608337851958401,-0.04355924610119419,-0.28379005421225817,-0.9584222210984926,0.0072293990972778655,0.02894455084343351,-3.1112619648435254,-0.05140157016752147,2.5650605642571054,1.0,0,init,1
2026-01-14 21:27:32.506,0.3015422053778403,0.7618975330643152,-0.0404838295232631,-0.28759069136725973,-0.9573192380867774,0.005511093627334492,0.028303683062186304,-3.114722924945799,-0.0510436045241723,2.5572362664253516,1.0,0,init,1
2026-01-14 21:27:32.556,0.30168213735657845,0.7630621796492052,-0.036129224858513415,-0.29544512734905015,-0.9549604476090943,0.0031984944039837654,0.027431548652775178,-3.119244372202621,-0.05052362078156962,2.5409491181412687,1.0,0,init,1
2026-01-14 21:27:32.606,0.3020851546390285,0.7643267263417216,-0.030865291660965077,-0.3082801926681773,-0.9509283888336157,0.0004397557615524653,0.026425910270892895,-3.124440849644678,-0.050008001303394445,2.5141679144143123,1.0,0,init,1
2026-01-14 21:27:32.656,0.30279616978912505,0.7654234219332968,-0.025441784702541076,-0.32396876428836485,-0.9457215123912069,-0.0023334160070028215,0.025487564334324996,-3.1294765461424703,-0.04974069191872773,2.4812238216794107,1.0,0,init,1
2026-01-14 21:27:32.706,0.3031867277056244,0.7664872752050034,-0.01990563006354676,-0.3420187954477427,-0.9393555941214597,-0.005082229004780107,0.02466540698098436,-3.134259458206485,-0.049836238482051695,2.4430501057361016,1.0,0,init,1
2026-01-14 21:27:32.756,0.3026478545485908,0.7671865636924842,-0.01569182970784569,-0.35782579970488154,-0.93344925726879,-0.0070103277963564255,0.024166846589777247,-3.1373798717070214,-0.05015502737373946,2.4093672574976184,1.0,0,init,1
2026-01-14 21:27:32.806,0.30126017130707194,0.7670706493797163,-0.013327807235806899,-0.37117627560590216,-0.9282200431143935,-0.007673819338947393,0.024017420444294252,-3.1380046995647706,-0.05030479541487969,2.3806971995896853,1.0,0,init,1
2026-01-14 21:27:32.856,0.2996485492223128,0.7660487165299718,-0.013164048562183256,-0.38217285924653754,-0.9237477947035692,-0.006964042339685783,0.024195444817357022,-3.13595792209431,-0.05004480029775305,2.356896321452365,1.0,0,init,1
2026-01-14 21:27:32.906,0.29843835946703734,0.7647777147563312,-0.014313265516978063,-0.39069506814861504,-0.920177217891039,-0.005591049510614976,0.02449472522863306,-3.1327312738138713,-0.04946794000897597,2.338332267156645,1.0,0,init,1
2026-01-14 21:27:32.956,0.29841315223199255,0.764374343720657,-0.014630395606989671,-0.3947652727847468,-0.9184382768742864,-0.005228015564664555,0.024580049402553213,-3.1317770905583764,-0.049298160282774936,2.329454464517921,1.0,0,init,1
2026-01-14 21:27:33.006,0.2987819663511913,0.7647246929501681,-0.01425426750239614,-0.3949950026041701,-0.9183394383649777,-0.0055624161973669055,0.024508843042387086,-3.1324359733234926,-0.04942925306350213,2.3289697711269013,1.0,0,init,1
2026-01-14 21:27:33.056,0.29874029750638165,0.764681441825203,-0.01431790322967702,-0.3949890917794884,-0.9183421276127468,-0.005516071822001363,0.024513811995747002,-3.132347147918683,-0.04940180096946584,2.3289806912974083,1.0,0,init,1
2026-01-14 21:27:33.106,0.2987844749578689,0.7646975049464626,-0.014296637623286035,-0.3950078847281211,-0.9183342955842196,-0.005529921568002548,0.02450127596478251,-3.132381530188429,-0.04938952632203287,2.328940867777912,1.0,0,init,1
2026-01-14 21:27:33.156,0.29875361403133066,0.7646721509871202,-0.014325035234198896,-0.3950057658307652,-0.9183348518446716,-0.005498949216549221,0.024521549816228894,-3.132308639757717,-0.049402313596487724,2.3289433418686554,1.0,0,init,1
2026-01-14 21:27:33.206,0.2986571978056264,0.7646477084951318,-0.014349205046814306,-0.3950489763618568,-0.9183154391935776,-0.005466285694251834,0.02455972587112541,-3.13221601606351,-0.04944619829300013,2.3288460879600574,1.0,0,init,1
2026-01-14 21:27:33.256,0.2987165934300916,0.7646431897769393,-0.0143485808819927,-0.3957837311148913,-0.9179997969093139,-0.005452415881699012,0.024533288003996012,-3.132171912275554,-0.04937912620487191,2.3272454400433973,1.0,0,init,1
2026-01-14 21:27:33.306,0.2986919759987798,0.7645792022775786,-0.014395495707054229,-0.3975823455183964,-0.9172222885706605,-0.005350739543576882,0.024554459220830056,-3.1318714767402294,-0.049318504308827546,2.323318131542804,1.0,0,init,1
2026-01-14 21:27:33.356,0.2986142587938104,0.7644372914944638,-0.014529060799324728,-0.40229463452414016,-0.9151658086466066,-0.005097239738189655,0.0245883684766333,-3.1311259369865865,-0.04912580984085438,2.3130145421751656,1.0,0,init,1
2026-01-14 21:27:33.406,0.29853519230559916,0.7643647364526462,-0.01458984773478017,-0.41134402137126896,-0.9111335384623563,-0.004778910582952048,0.024676571577490883,-3.129985839520536,-0.04891836454317097,2.2931672016563898,1.0,0,init,1
2026-01-14 21:27:33.456,0.2984021199879383,0.7641332881246441,-0.0148409291001467,-0.4285408992449422,-0.9031733340905946,-0.0040778671841963585,0.02477896812305992,-3.1277044681869026,-0.048273218608720664,2.255203601882672,1.0,0,init,1
2026-01-14 21:27:33.506,0.2981256339285308,0.7637929809300457,-0.015104921512408415,-0.4507718296195471,-0.8922846530483756,-0.0031889684333653973,0.02495367780743246,-3.1247670483683736,-0.04742433651823334,2.205614227473815,1.0,0,init,1
2026-01-14 21:27:33.556,0.29814477298716013,0.7638093111805153,-0.015091294376719716,-0.4764589015867769,-0.8788369391957366,-0.0024772910405070807,0.025028232716112774,-3.1220748585039946,-0.04636873974634654,2.1475517883840776,1.0,0,init,1
2026-01-14 21:27:33.606,0.2981379072787834,0.7637456243251189,-0.015125176295845144,-0.5035913800201403,-0.8635761976816554,-0.001654418367296277,0.025082576960334266,-3.1191627589620126,-0.04500292345839487,2.0852178643227077,1.0,0,init,1
2026-01-14 21:27:33.656,0.29810169005851345,0.7636575317882947,-0.015201963626924109,-0.5294478980368215,-0.8479706293034487,-0.0008100715393955354,0.025101372217590064,-3.116360269453118,-0.043441896762746596,2.0247513521355556,1.0,0,init,1
2026-01-14 21:27:33.706,0.2977782182251154,0.7630694162365366,-0.015674522269924662,-0.5529944635770765,-0.8328062277755411,0.0003625272474768114,0.025115310178653885,-3.11318335705601,-0.04144328477531706,1.9686769415063248,1.0,0,init,1
2026-01-14 21:27:33.756,0.29715353460901117,0.7622857425546261,-0.016343714940095372,-0.5735118763941073,-0.8188097509417873,0.0016633439945809964,0.025138669103882304,-3.1100044764092027,-0.03926977201090425,1.918954830605111,1.0,0,init,1
2026-01-14 21:27:33.806,0.29656442327627525,0.7615075120492252,-0.01699507520419219,-0.5907650963947996,-0.8064482264840186,0.002870862570172877,0.025092170701782452,-3.1072847747104633,-0.037087563977616214,1.8764754800819523,1.0,0,init,1
2026-01-14 21:27:33.856,0.2958507221025857,0.7604587347605992,-0.01783714641081649,-0.6050385988051582,-0.7957934570502359,0.00416223776307625,0.024974856330498077,-3.1047160091002417,-0.034720000790739336,1.8408362128878315,1.0,0,init,1
2026-01-14 21:27:33.906,0.2952925793868693,0.7596388459880721,-0.018473970090753328,-0.6169930463023227,-0.7865578030638778,0.0052289837165947544,0.02488093613989917,-3.1026334593093803,-0.03269391982110267,1.8106165250036526,1.0,0,init,1
2026-01-14 21:27:33.956,0.29496471020629694,0.759219226412648,-0.018842721589576866,-0.6272564510289753,-0.7783957329191928,0.005918011422819843,0.02478718936319216,-3.101253166845051,-0.031169309898328813,1.7843895602956743,1.0,0,init,1
2026-01-14 21:27:34.006,0.2948493529704349,0.7590947994364043,-0.018935307369916415,-0.636032130576756,-0.7712408082914407,0.006301140087629659,0.02471922599018057,-3.1003984902287813,-0.03011804968117133,1.7617448361136232,1.0,0,init,1
2026-01-14 21:27:34.056,0.29482776525923277,0.7590744596431236,-0.01896808695798302,-0.6430742313427665,-0.7653788842176193,0.006558674045414425,0.024651173835502967,-3.09981776381497,-0.029303741027770936,1.743421861470759,1.0,0,init,1
2026-01-14 21:27:34.106,0.2947994407562276,0.7590023531009356,-0.01902441645846359,-0.6487690954663657,-0.7605570951688507,0.006796856262405213,0.024604237460679947,-3.0992990099238122,-0.02861057727553761,1.7285000670679314,1.0,0,init,1
2026-01-14 21:27:34.156,0.29477863248555414,0.7589602481676306,-0.019067138817130763,-0.6531376812139268,-0.7568086733735592,0.006976571880104082,0.024558679318118677,-3.0989226528475577,-0.02806280226329744,1.7169899644140272,1.0,0,init,1
2026-01-14 21:27:34.206,0.2946615575794036,0.7587709540320654,-0.019229253525263557,-0.655723004844138,-0.7545690418919835,0.0072296479842032186,0.024507838060775573,-3.0985117919981198,-0.02750788776639364,1.7101529100212822,1.0,0,init,1
2026-01-14 21:27:34.256,0.29403985726453186,0.7579218074963928,-0.02000155851642152,-0.6568888253876499,-0.7535490272601602,0.008021273811421828,0.02442526893490148,-3.0973847814128552,-0.02627612858386474,1.7070655214988266,1.0,0,init,1
2026-01-14 21:27:34.306,0.293374751276025,0.7569865093437573,-0.02082007513068751,-0.6570891708526447,-0.7533685468300604,0.008832486010876437,0.024323679536917383,-3.096289068816205,-0.025044546423803316,1.7065396145359506,1.0,0,init,1
2026-01-14 21:27:34.356,0.2927403422018155,0.7560515388537096,-0.021565845878695755,-0.657249098731711,-0.7532224364374666,0.009600152593494175,0.024236759967909135,-3.0952415541053933,-0.023894233117510478,1.706119880922157,1.0,0,init,1
2026-01-14 21:27:34.406,0.2924791195668831,0.7556413958639286,-0.021933412002592773,-0.6574351209082466,-0.7530564012036463,0.00997209683185747,0.02420073733067429,-3.0947228028221097,-0.023339145757610317,1.7056278667554898,1.0,0,init,1
2026-01-14 21:27:34.456,0.29249903044889125,0.7556559939854999,-0.02193251628213161,-0.6574980408619897,-0.7530022684591096,0.009955400377145554,0.024182637602444042,-3.0947698574953457,-0.02332996576575136,1.7054625754242025,1.0,0,init,1
2026-01-14 21:27:34.506,0.2924393206360921,0.755603936723238,-0.02200217406061475,-0.6575213045423705,-0.7529807658256253,0.01002086129038083,0.024192616819043635,-3.0946573809329423,-0.023257387323152447,1.7053996119222299,1.0,0,init,1
2026-01-14 21:27:34.556,0.2924485487191797,0.755609608300592,-0.022171519065279116,-0.6575222567819682,-0.7529791016234465,0.010100471276226443,0.02418542608045893,-3.094546909422639,-0.023141736967631697,1.7053974227910236,1.0,0,init,1
2026-01-14 21:27:34.606,0.2924134560588409,0.7555362829535629,-0.022708493008013586,-0.6575429226483857,-0.752958226854931,0.01042082787034407,0.024137519197177833,-3.0941268592754145,-0.022646739856357356,1.7053456974050072,1.0,0,init,1
2026-01-14 21:27:34.656,0.2920985486241846,0.7550985673161618,-0.024496411339417268,-0.6575509285566443,-0.7529387339617203,0.01157710503023252,0.02400020611444358,-3.0925658771038083,-0.02091782270535315,1.7053326884349942,1.0,0,init,1
2026-01-14 21:27:34.706,0.291714214565496,0.7545928406469808,-0.027129783502246346,-0.6575541934314383,-0.7529146990229426,0.013205442199702738,0.023823412690725333,-3.090345939188155,-0.018508464104228038,1.7053346587999036,1.0,0,init,1
2026-01-14 21:27:34.756,0.2912328317584973,0.7538711102250821,-0.03053032931428462,-0.657600693723549,-0.7528411164962595,0.015333012695941974,0.023589820869155974,-3.087447813356253,-0.01535337778253218,1.7052263438151614,1.0,0,init,1
2026-01-14 21:27:34.806,0.2907517325142464,0.7533117121728136,-0.03412128462058625,-0.657568672749213,-0.7528285533056048,0.017517202479579268,0.023361454661855914,-3.0844589477481184,-0.01213711104587335,1.7053270053401852,1.0,0,init,1
2026-01-14 21:27:34.856,0.2901507194945,0.7526438501760228,-0.03760978903859649,-0.6575386375573361,-0.7528093952460193,0.019688742454500866,0.023093461609842443,-3.0815407743737797,-0.00887784857903421,1.7054272203702185,1.0,0,init,1
2026-01-14 21:27:34.906,0.28961980434671086,0.7518894491192322,-0.041163529732282156,-0.6575342329083403,-0.7527595674996413,0.021905118375999663,0.02284582851040161,-3.0785274703736976,-0.005588130644633742,1.7054586485886742,1.0,0,init,1
2026-01-14 21:27:34.956,0.2891423465214681,0.7512096306100784,-0.04432609462753451,-0.657543129132792,-0.7526990589031115,0.02388701223284971,0.022595811629918524,-3.075870222829955,-0.0026022136963617555,1.7054563096611661,1.0,0,init,1
2026-01-14 21:27:35.006,0.2886896471146758,0.7505216125667538,-0.0475284937709686,-0.6575578203792983,-0.7526268363482275,0.025878676543123095,0.022379726693176893,-3.0731533328605205,0.0003462864920671683,1.7054364797958361,1.0,0,init,1
2026-01-14 21:27:35.056,0.28828425900920424,0.7499207997339844,-0.050248831777748804,-0.6575647949226566,-0.7525659073818405,0.027577061962316112,0.022194620483311212,-3.070837426454244,0.0028615846870279214,1.7054351666729903,1.0,0,init,1
2026-01-14 21:27:35.106,0.28827340305573806,0.7499374696052823,-0.051815845829203386,-0.6575674790631294,-0.7525357079455942,0.02838856994547101,0.022115782641261957,-3.069718133552936,0.004048979516386778,1.7054356484360778,1.0,0,init,1
2026-01-14 21:27:35.156,0.2891758807403178,0.7512841635325347,-0.05168732243227141,-0.6575570987952175,-0.7525661545282819,0.027771685417886643,0.022171566737166904,-3.0705744151835748,0.0031518015638172785,1.7054577768789059,1.0,0,init,1
2026-01-14 21:27:35.206,0.2908547171771909,0.7536759374639529,-0.05017203502445235,-0.6575629687200705,-0.7526183473232071,0.025981082306559787,0.02239528527864073,-3.072978521996557,0.00045819005167115133,1.7054214148577316,1.0,0,init,1
2026-01-14 21:27:35.256,0.2928638184479324,0.7565862926252634,-0.04807432157960148,-0.6575542966881031,-0.7526946887453523,0.023658923137663816,0.02265629708309751,-3.076134242085551,-0.0029925003001334397,1.7054212921141982,1.0,0,init,1
2026-01-14 21:27:35.306,0.29449093720053926,0.7589573558860652,-0.046605083673884495,-0.6575324032867651,-0.7527606143951813,0.021916524423716742,0.022853052323592547,-3.07850078419633,-0.005584134485007339,1.7054628354707828,1.0,0,init,1
2026-01-14 21:27:35.356,0.29516184090299397,0.7599283238916742,-0.04662971366296437,-0.6575328014892206,-0.7527703875976449,0.021516692382517213,0.022899573593079738,-3.079041979267015,-0.006180419082950515,1.7054579578693532,1.0,0,init,1
2026-01-14 21:27:35.406,0.29498092016737215,0.7597013609587663,-0.04845092163916345,-0.6575343703717882,-0.7527409543382537,0.022572622559715053,0.022805353592693686,-3.077574961918227,-0.0046485136712420974,1.7054613614181273,1.0,0,init,1
2026-01-14 21:27:35.456,0.29431192257442523,0.7591260664642675,-0.05158394503001269,-0.6575280599744722,-0.7526825063247436,0.02454260916812959,0.02288133200077214,-3.0745063651696927,-0.0021698499534140952,1.7054699595069645,1.0,0,init,1
2026-01-14 21:27:35.506,0.2943289720713364,0.75962636382342,-0.054527301458963784,-0.6574474603754076,-0.7527164644490086,0.025547622759113972,0.022979990528048326,-3.072862013697553,-0.0010023952113387322,1.705674489549224,1.0,0,init,1
2026-01-14 21:27:35.556,0.29547727281538444,0.761306209213737,-0.05642314699890129,-0.6574543605355133,-0.7527099868623861,0.025536902774055608,0.02300665310675337,-3.072843058197986,-0.0010559791449672917,1.70565370994516,1.0,0,init,1
2026-01-14 21:27:35.606,0.2969654941126893,0.7634641644358323,-0.058006626310562345,-0.6574593038972131,-0.7527096259517608,0.025427716597705676,0.02299812921041696,-3.073018832622401,-0.0011864490414331167,1.7056414019566946,1.0,0,init,1
2026-01-14 21:27:35.656,0.29770318820303565,0.7645498740523303,-0.05948786512963666,-0.6574410371945865,-0.7527158301435398,0.025737638099617485,0.02297249766310504,-3.072585498497691,-0.0007415663915735434,1.705692200007731,1.0,0,init,1
2026-01-14 21:27:35.706,0.29779652576365695,0.7647087318456139,-0.06075484134069804,-0.6574440806351922,-0.7526940799631293,0.0263313492111992,0.022925158122095966,-3.0717529718672623,0.00011151774687267479,1.7056884719969576,1.0,0,init,1
2026-01-14 21:27:35.756,0.2977410582568512,0.7646252054621021,-0.06109227592900414,-0.6574401239128744,-0.752691600323589,0.02653392033823336,0.02288644452996762,-3.071498611871225,0.0004360586459874272,1.7057025643047379,1.0,0,init,1
2026-01-14 21:27:35.806,0.29775045327342975,0.7646608800770679,-0.06101473330756882,-0.6574399282360271,-0.7526928398668942,0.026479303395926728,0.02291453830614981,-3.0715439489601555,0.0003218848304852636,1.7057004806916267,1.0,0,init,1
2026-01-14 21:27:35.856,0.2977688634767995,0.7646469266257488,-0.06102061798681688,-0.6574471820178663,-0.7526868532799719,0.026490847332547952,0.022889708688933825,-3.071559240147523,0.00037510025375677255,1.7056835279707883,1.0,0,init,1
2026-01-14 21:27:35.906,0.29776623141823266,0.7646303400574285,-0.061080808386613464,-0.657438130091366,-0.7526935512876554,0.02651501683724551,0.0229014592126022,-3.0715073370367514,0.0003884048585993499,1.7057064653928287,1.0,0,init,1
2026-01-14 21:27:35.956,0.2977352871674894,0.7646167939402705,-0.061085582481581704,-0.6574238861748475,-0.7527058149947337,0.026532419820785077,0.02288712866063729,-3.0714999636027627,0.0004315434470118874,1.7057455933383625,1.0,0,init,1
2026-01-14 21:27:36.006,0.29769234397735167,0.7645859644367108,-0.061123616174860576,-0.657426710098554,-0.7527015530762649,0.02657598695917839,0.02289562758948012,-3.071423109190576,0.0004763784758924556,1.7057373165447687,1.0,0,init,1
2026-01-14 21:27:36.056,0.297641863527232,0.764578067910625,-0.061214115160256224,-0.6574165012795734,-0.752707838545887,0.026634103029038743,0.022914584716776685,-3.0713105491763684,0.0005234226133579484,1.70576265927171,1.0,0,init,1
2026-01-14 21:27:36.106,0.2973613197878556,0.7645650334533085,-0.06159638628008868,-0.6573447579736753,-0.7527595821246973,0.02688294081181721,0.022982344904074147,-3.070846203357388,0.0007423598188417213,1.7059467853862067,1.0,0,init,1
2026-01-14 21:27:36.156,0.29652149121853344,0.7647694405602787,-0.06226471563972451,-0.6571436698449716,-0.7528972079955859,0.027404697384311706,0.02360029526105354,-3.0692461417049475,0.00048045401888199764,1.7064221988897907,1.0,0,init,1
2026-01-14 21:27:36.206,0.2956886701106707,0.7649070604850426,-0.06329906740781727,-0.6570213015957229,-0.7529525401611887,0.028155819260112697,0.02434607475687867,-3.0671320915533578,0.0003350683795240924,1.7066746225240157,1.0,0,init,1
2026-01-14 21:27:36.256,0.2944147931405099,0.7650327151916082,-0.06515515464543653,-0.6568734343616093,-0.7529895707950472,0.029475569263167516,0.025596646664892284,-3.063496183868194,0.0001754208522409182,1.7069407245715276,1.0,0,init,1
2026-01-14 21:27:36.306,0.29328701203850477,0.7650985601658494,-0.06723183116499697,-0.6566923948282165,-0.7530672637695466,0.030774649753123395,0.02641430949319952,-3.0604607447005576,0.0006354533867110409,1.7073349684347419,1.0,0,init,1
2026-01-14 21:27:36.356,0.29253588289868154,0.7649050879319215,-0.06901226463647937,-0.6566238836586601,-0.7530598156587739,0.03196777890409878,0.02690818761883436,-3.058010866679461,0.0014546651690234024,1.7074635671239766,1.0,0,init,1
2026-01-14 21:27:36.406,0.2917284641690484,0.7648375046741743,-0.07062309949924087,-0.656606294621071,-0.7529925551396767,0.033111459978545324,0.02782116076474035,-3.0550842206204307,0.001584132892183384,1.70740935259648,1.0,0,init,1
2026-01-14 21:27:36.456,0.29085166869750534,0.7649047568497498,-0.07195260452080644,-0.6566316039688326,-0.7528775493167135,0.03413791934566968,0.029067763362982862,-3.051895403085286,0.0010631407828024504,1.7071989914775139,1.0,0,init,1
2026-01-14 21:27:36.506,0.29026392072549223,0.7648868122399161,-0.07304298191652456,-0.6566271606745491,-0.7528156713664533,0.03491823139612441,0.029833771563827823,-3.049710069687232,0.0009378568738812288,1.7071196703299583,1.0,0,init,1
2026-01-14 21:27:36.556,0.2899890788516583,0.7647916506747036,-0.07386655684941063,-0.6566172834202347,-0.7527933766675003,0.03544811565020807,0.029988435374719104,-3.0487069911564553,0.0014015002065971038,1.707127252222272,1.0,0,init,1
2026-01-14 21:27:36.606,0.28995626393459806,0.764655126105002,-0.07447183117951493,-0.6566140435813175,-0.7527822102596811,0.03578510996178392,0.029939398680738246,-3.0482630033768787,0.0019183192551067666,1.707141891329301,1.0,0,init,1
2026-01-14 21:27:36.656,0.2899771107094021,0.764714759422863,-0.0745539905482052,-0.656598550279471,-0.7527953980697728,0.03579073188983419,0.029940873845953744,-3.0482525395897273,0.0019215824363364577,1.7071827872422776,1.0,0,init,1
2026-01-14 21:27:36.706,0.2900585759084652,0.7648122786658925,-0.07449239524225934,-0.6565953196347547,-0.7528016594657442,0.035709772364266944,0.029950958199165607,-3.0483614298984087,0.0017994777005123227,1.7071901012740636,1.0,0,init,1
2026-01-14 21:27:36.756,0.2900719959679006,0.7648942392007261,-0.07447385862460378,-0.6565771506026628,-0.7528196666641117,0.03564299930834307,0.0299761803859287,-3.0484289615585194,0.0016714423758696687,1.707235185123993,1.0,0,init,1
2026-01-14 21:27:36.806,0.2905565049383638,0.7655698629861997,-0.07431053997569807,-0.6565730413422434,-0.7528595398391634,0.03479537096268754,0.030060552478772012,-3.0495969863775185,0.0004286576753754957,1.707235673466142,1.0,0,init,1
2026-01-14 21:27:36.856,0.29175138491400165,0.7673329265957278,-0.07414189292283425,-0.6565337291452391,-0.7529976233886351,0.03218444426961449,0.030367798945087517,-3.0531322062670543,-0.0034734214170637563,1.7073032193398892,1.0,0,init,1
2026-01-14 21:27:36.906,0.2936103116921311,0.769958911326959,-0.07435732306993813,-0.6565234406280327,-0.7531565787447976,0.027882808464354345,0.03089803863519093,-3.0589236371269912,-0.009930850674277758,1.7072708538496402,1.0,0,init,1
2026-01-14 21:27:36.956,0.29550103827255897,0.7728086728008479,-0.07595131843201998,-0.6564313902218715,-0.7533784311985628,0.022960357090931423,0.031489543318861016,-3.0655709539035274,-0.017304150800263776,1.7074541585859504,1.0,0,init,1
2026-01-14 21:27:37.006,0.29743260160146706,0.7756669371770101,-0.07923195212869999,-0.6563273271184036,-0.753589053111637,0.017419041833013488,0.03216450978233491,-3.0730420148849533,-0.02561525972094398,1.7076678095592446,1.0,0,init,1
2026-01-14 21:27:37.056,0.2996346007222182,0.7789296978625684,-0.08252481570510688,-0.6561702315355223,-0.7538124291872248,0.010979978101037223,0.032967998580064425,-3.0817006357202845,-0.03530123612072184,1.7080192777956067,1.0,0,init,1
2026-01-14 21:27:37.106,0.3013379199115758,0.7814261056186813,-0.08529378990227637,-0.65604077446651,-0.753954682118203,0.006004640660870951,0.033567601045579515,-3.0884211589193646,-0.042751343152673475,1.708322127517738,1.0,0,init,1
2026-01-14 21:27:37.156,0.3015601881534535,0.7817628692391676,-0.087987780389005,-0.6560249066125169,-0.7539688512576964,0.005590157870631898,0.033630988272271574,-3.0889637028312076,-0.04339248565829963,1.7083594194320655,1.0,0,init,1
2026-01-14 21:27:37.206,0.3008969652831804,0.780806434822283,-0.08955483560371769,-0.6560583994783813,-0.7539367156644807,0.006824764225639766,0.03346980490210964,-3.0873120587283833,-0.04152527475254281,1.7082814889792175,1.0,0,init,1
2026-01-14 21:27:37.256,0.30025690563026575,0.7799556523442961,-0.09003389249627358,-0.656037696618875,-0.7539513617988923,0.00744218085623114,0.03341404795441514,-3.0864554011696126,-0.04063161059635089,1.708338834144103,1.0,0,init,1
2026-01-14 21:27:37.306,0.30000969011957457,0.7794956904225268,-0.0903397145323617,-0.6560935200297747,-0.7539011831914451,0.007784444099037673,0.033372164861570366,-3.085991376444061,-0.040114740345662814,1.7081935868872595,1.0,0,init,1
2026-01-14 21:27:37.356,0.2993139768133377,0.7785152435312233,-0.09096883345351876,-0.6560970640246936,-0.7538937362699882,0.008661460778715286,0.03325441456759531,-3.0848236076544175,-0.03878479472402142,1.708192784364404,1.0,0,init,1
2026-01-14 21:27:37.406,0.2976813975253047,0.7761299343753368,-0.09268418643196703,-0.6561406101837383,-0.7538416216938408,0.010559871431963368,0.03302723399033111,-3.082257578480023,-0.03594482609506229,1.708093081030184,1.0,0,init,1
2026-01-14 21:27:37.456,0.2962793324120003,0.774098281600396,-0.09410506123844567,-0.6561746584516833,-0.7537949285187707,0.012173922906978133,0.032860598689818,-3.0800412709873513,-0.0335701708676556,1.7080135891727097,1.0,0,init,1
2026-01-14 21:27:37.506,0.29562498150246025,0.7731267279125279,-0.09473203702222685,-0.6561904265613142,-0.7537727515652275,0.01292409948742289,0.03276783086360131,-3.0790314091397475,-0.032443346541273343,1.7079789483977057,1.0,0,init,1
2026-01-14 21:27:37.556,0.29564141836058677,0.773092287871227,-0.09475688223609306,-0.6562137722610542,-0.7537524093795528,0.012908841228382609,0.032774262273571816,-3.0790449433034373,-0.03247114534070516,1.7079163300021247,1.0,0,init,1
2026-01-14 21:27:37.606,0.29558088282061584,0.7730209071415874,-0.0948420931650687,-0.6561979998883574,-0.7537650664094966,0.012996980097163126,0.03276412842668783,-3.078926045848387,-0.03234136387797726,1.707958905023263,1.0,0,init,1
2026-01-14 21:27:37.656,0.2955127979193716,0.7729438659007593,-0.09488903099777043,-0.6561959537940667,-0.7537659040991108,0.013055485167787815,0.03276257543263378,-3.0788399439682648,-0.03226230794698209,1.7079641822911649,1.0,0,init,1
2026-01-14 21:27:37.706,0.2955240755574119,0.7729254678312378,-0.09489658346317337,-0.6562115676761627,-0.7537528656900915,0.013072737688306742,0.03274292963833457,-3.078839142873586,-0.032208759335504406,1.7079251499902741,1.0,0,init,1
2026-01-14 21:27:37.756,0.2955188737185674,0.7729320405693664,-0.09489288782338898,-0.6562026830703633,-0.7537600522727284,0.013067725006906443,0.032757547103131564,-3.0788278220476757,-0.03223809226690911,1.7079469002487766,1.0,0,init,1
2026-01-14 21:27:37.806,0.295555109779832,0.7729423447919631,-0.09487260532595951,-0.6562123222042298,-0.7537529098355504,0.013036209419592907,0.032741355282598764,-3.0788962750172697,-0.03225433341934404,1.7079235606881389,1.0,0,init,1
2026-01-14 21:27:37.856,0.2955731418549271,0.7729786633351318,-0.09484832412942835,-0.6562261668008036,-0.7537402567864919,0.0130080059142348,0.032766371289671324,-3.0789052557415078,-0.03232790915688835,1.70788387458226,1.0,0,init,1
2026-01-14 21:27:37.906,0.2955249122817698,0.7729264031336832,-0.09491371943028784,-0.6562026538658029,-0.7537604117863812,0.013067241363963129,0.032750051698256115,-3.0788384285738273,-0.03222744631055231,1.707947922131267,1.0,0,init,1
2026-01-14 21:27:37.956,0.29554198340581245,0.7729626639502003,-0.0948697608875575,-0.6562251987105258,-0.7537406469224477,0.0130397699518848,0.032764159593419134,-3.0788603074036947,-0.03228291361732493,1.7078865332963709,1.0,0,init,1
2026-01-14 21:27:38.006,0.2955208544602432,0.7729379913970127,-0.09490159659955064,-0.6562185629532653,-0.7537458580622789,0.013064195649076847,0.032767451557191636,-3.0788194163731335,-0.032256319723066466,1.7079035713519592,1.0,0,init,1
2026-01-14 21:27:38.056,0.2955593452217088,0.7729067462007316,-0.09491309180130415,-0.6562580490815878,-0.7537123961939496,0.013079019310619777,0.03274043513876354,-3.0788309738443,-0.03219288064488873,1.7078021794754257,1.0,0,init,1
2026-01-14 21:27:38.456,0.2934112131863338,0.7696323133873023,-0.09739738787856839,-0.6563596664676443,-0.7535868056053164,0.015748683570945513,0.03241748938212213,-3.075226534491492,-0.028188916220853597,1.70755861324956,1.0,0,init,1
2026-01-14 21:27:38.506,0.2934435241957165,0.7696626689843353,-0.0973545560278606,-0.6563582435798494,-0.7535881372521247,0.01572569463387001,0.03242650159869642,-3.0752493799174205,-0.028232825802724477,1.7075613759225465,1.0,0,init,1
2026-01-14 21:27:38.556,0.2934781415426212,0.7695428696060532,-0.09750082342283703,-0.6563856407750047,-0.7535635177077452,0.015830675808683792,0.03239297867988638,-3.0751342224544587,-0.028041952349070916,1.7074923879218011,1.0,0,init,1
2026-01-14 21:27:38.606,0.2932208070422181,0.7689773863046074,-0.09810666564180599,-0.6564536898639931,-0.753495470643222,0.01637301981668582,0.03232727959758259,-3.074400509462812,-0.02722402167489742,1.707317443337944,1.0,0,init,1
2026-01-14 21:27:38.656,0.2926336535797087,0.7681591677227213,-0.09938475300712521,-0.6564579248394116,-0.7534743132540739,0.017358674301179676,0.032220003233098204,-3.0730554939365122,-0.025766261942112092,1.707314891301893,1.0,0,init,1
2026-01-14 21:27:38.706,0.2922604089919305,0.7675940424353852,-0.10076600264622815,-0.656487717874348,-0.7534304860282356,0.018302182863035334,0.03211555862561804,-3.071769439296005,-0.024365776254646976,1.707244646082939,1.0,0,init,1
2026-01-14 21:27:38.756,0.2919738215321508,0.7671997901868888,-0.10223000736875743,-0.6564907474583881,-0.7534101360283082,0.019166860772005336,0.03202650276691967,-3.0705828522469174,-0.023094502980452777,1.7072440057000426,1.0,0,init,1
2026-01-14 21:27:38.806,0.2917697093055656,0.7668840652674728,-0.10327085478894439,-0.6565085265226946,-0.7533818688664022,0.019826670164399412,0.031925184675421776,-3.069720881394542,-0.022072746844405022,1.7072067834797438,1.0,0,init,1
2026-01-14 21:27:38.856,0.2916066811339191,0.7666758831054167,-0.10386321423273649,-0.6564966546435878,-0.7533833838195767,0.020221346779919793,0.031885993174882395,-3.0691777161461626,-0.021495917256412905,1.7072415835242116,1.0,0,init,1
2026-01-14 21:27:38.906,0.2915236845965189,0.7665702668493771,-0.10400292031217334,-0.6565053902464463,-0.7533727064759069,0.02035368243329427,0.03187421098525754,-3.0689934371507857,-0.021303328053857474,1.7072193743381148,1.0,0,init,1
2026-01-14 21:27:38.956,0.2915274996938473,0.7665422724836847,-0.10401777039934636,-0.656519017620049,-0.7533605729991472,0.020365093678162142,0.03187302171244548,-3.068977412470979,-0.021285220423093817,1.7071833446225304,1.0,0,init,1
2026-01-14 21:27:39.006,0.2915132502818674,0.7665061070186777,-0.10403901994689696,-0.6565254687136922,-0.7533547902314565,0.02039129002552243,0.031860073080268995,-3.0689547880989885,-0.02123066974839415,1.707167748031666,1.0,0,init,1
2026-01-14 21:27:39.056,0.29153239492255445,0.7665237857457098,-0.10402321236286488,-0.6565078679376539,-0.7533709704641736,0.020371777085289183,0.0318526434729145,-3.068994494558315,-0.021246848505678817,1.7072154156429773,1.0,0,init,1
2026-01-14 21:27:39.106,0.29153847755688767,0.7665027583247492,-0.10405509003726249,-0.6565166739308803,-0.7533631813670095,0.020391420713221628,0.03184279781377753,-3.0689775965989514,-0.021205356712155884,1.707193213975715,1.0,0,init,1
2026-01-14 21:27:39.156,0.2915564545583963,0.7665545886478953,-0.10400328223750997,-0.6565071829676736,-0.7533727755577058,0.02033549012016644,0.03184725422859325,-3.069056331545105,-0.021286525466442337,1.7072180407063475,1.0,0,init,1
2026-01-14 21:27:39.206,0.2915255396090122,0.766495400598396,-0.104065050020913,-0.6565038631352741,-0.7533747432757497,0.02039346361773619,0.03183206754723453,-3.068989011401092,-0.02118776137423734,1.7072285071616864,1.0,0,init,1
2026-01-14 21:27:39.256,0.2915255206850322,0.7664886187816498,-0.10408574590710339,-0.6565142854427662,-0.7533659379165388,0.0204043330887006,0.03181854471708894,-3.068990143464687,-0.021152120503379165,1.707202509364629,1.0,0,init,1
2026-01-14 21:27:39.306,0.29150345175696,0.766458389348628,-0.10413834818192037,-0.6565104986607319,-0.7533680120549273,0.020455713054799974,0.03181457785456061,-3.068917998161222,-0.02107895072866701,1.7072128467131487,1.0,0,init,1
2026-01-14 21:27:39.356,0.2915311816582483,0.7664552906855262,-0.10417410110796434,-0.6565124902966747,-0.7533666133533827,0.02047000209303343,0.031797405290759695,-3.0689190183290873,-0.02103413397816944,1.7072096425521632,1.0,0,init,1
2026-01-14 21:27:41.656,0.29124779295207304,0.7651030278952121,-0.10714910777509966,-0.6692026315150053,-0.7420972588127225,0.02285691971370242,0.03061139750545214,-3.066619616351876,-0.014841991617619187,1.6734493657593905,1.0,0,init,1
2026-01-14 21:27:41.706,0.29119573433600054,0.7651277271675612,-0.10711271978717783,-0.6766396567365244,-0.735322881136309,0.0231440302843711,0.030387320893296283,-3.0663557728727255,-0.013369045525407727,1.6533682677145374,1.0,0,init,1
2026-01-14 21:27:41.756,0.29119873834789367,0.7651565294514414,-0.10710862588325232,-0.683478164253564,-0.7289690529344353,0.02342381966690381,0.03021661007894563,-3.066060122766121,-0.012034899250749291,1.6347336182752297,1.0,0,init,1
2026-01-14 21:27:41.806,0.2911474464619868,0.765171601066593,-0.10709360904707771,-0.6875252758892766,-0.7251546274444136,0.023577082320976613,0.030064638673329966,-3.0659814460390953,-0.011183576782686043,1.6236344372686373,1.0,0,init,1
2026-01-14 21:27:41.856,0.29113482304137395,0.7651797840784827,-0.10711655362704742,-0.6877645393123581,-0.7249269893768852,0.023599467704394913,0.030064325395634535,-3.065945711791536,-0.011127357352533942,1.6229753796144755,1.0,0,init,1
2026-01-14 21:27:41.906,0.29115458809131933,0.765168320254804,-0.10710386268599147,-0.6877645589333719,-0.7249274714101372,0.02359223290424517,0.03005793101131539,-3.0659650287592113,-0.01112806620289517,1.622976095956199,1.0,0,init,1
2026-01-14 21:27:41.956,0.29118113953806635,0.7651979146411938,-0.10706592367375406,-0.6877774512566578,-0.7249162412786939,0.023556715145094206,0.030061634101278358,-3.0660112749826105,-0.011181011558117612,1.6229401625203057,1.0,0,init,1
2026-01-14 21:27:42.006,0.2911563773031831,0.7651732448019825,-0.10709652615504998,-0.6877756613868949,-0.724917650765225,0.023577709887258356,0.030052134854598296,-3.0659939291678224,-0.01113852629388621,1.6229462126010803,1.0,0,init,1
2026-01-14 21:27:42.056,0.29118496304444125,0.7652192658086447,-0.10705468502584281,-0.6877765227776003,-0.7249176851759153,0.023537976513719836,0.030062736016294382,-3.0660369666481184,-0.011208517414130417,1.6229426038826857,1.0,0,init,1
2026-01-14 21:27:42.106,0.29118976041112987,0.7652332870042798,-0.10703120036667867,-0.6877674391392645,-0.724926443214061,0.02352100215229164,0.030072646151957597,-3.0660480787253483,-0.011247191118888325,1.6229664584504744,1.0,0,init,1
2026-01-14 21:27:42.156,0.29119896593023736,0.7652470340564927,-0.10701700940032811,-0.6877692128633804,-0.7249256325405089,0.023503018730084355,0.03006568199130583,-3.066083754574647,-0.011261699731133359,1.6229624191950112,1.0,0,init,1
2026-01-14 21:27:42.206,0.29123906441556785,0.7653046582974249,-0.10694326068284901,-0.6877529867219694,-0.7249435778484954,0.023431739369231156,0.03005980341528456,-3.0661955671642813,-0.011353069289446306,1.623007883631857,1.0,0,init,1
2026-01-14 21:27:42.256,0.2912473510766852,0.7652685251164072,-0.10692928885828668,-0.6877586252136105,-0.724937440409248,0.023459038819500195,0.030057518773806947,-3.066159006750943,-0.011311570095948189,1.6229926003639368,1.0,0,init,1
2026-01-14 21:27:42.306,0.2912855881951436,0.7653261413785037,-0.1069168904537833,-0.6877479696299803,-0.724948592795345,0.02340765995677395,0.030072404779744353,-3.0662132200925174,-0.01140500108347975,1.6230202186188156,1.0,0,init,1
2026-01-14 21:27:42.356,0.29127021868954545,0.7653118130503003,-0.1069007915793322,-0.6877491274987303,-0.7249477330303401,0.023401741045811383,0.030071257288827296,-3.0662233748942334,-0.011411373291560384,1.6230171707986485,1.0,0,init,1
2026-01-14 21:27:45.456,0.29399479504400533,0.7695051424702845,-0.10023868684870155,-0.6875891781638538,-0.7252124197152565,0.018279773297518263,0.030885567032033028,-3.07253784901239,-0.01966051156300262,1.6233650980267365,1.0,0,init,1
2026-01-14 21:27:45.506,0.29445689178781764,0.7700023049677789,-0.09819705183492283,-0.687613055882731,-0.7252125190006301,0.01704797120070584,0.031055665220905426,-3.074090300571797,-0.02160077901889727,1.623280318936952,1.0,0,init,1
2026-01-14 21:27:45.556,0.2947268609503827,0.770485046356323,-0.09667048010264898,-0.6875728457572383,-0.7252644618941312,0.016094750897311813,0.031241016056828406,-3.075219254009874,-0.023185447271385582,1.6233698271508359,1.0,0,init,1
2026-01-14 21:27:45.606,0.29507008499136905,0.7709769250448877,-0.09521846026865137,-0.6875613808262925,-0.7252892163255641,0.01515318465268064,0.03138919038415986,-3.076381699330695,-0.024697504161543885,1.6233847256873777,1.0,0,init,1
2026-01-14 21:27:45.656,0.295288936391671,0.7712242185290475,-0.09404521929112722,-0.6875732832333282,-0.7252887237583528,0.014489133299909255,0.031453336690060986,-3.0772564851553543,-0.025703649153929153,1.6233451936261933,1.0,0,init,1
2026-01-14 21:27:45.706,0.2956045611405696,0.7713466439652016,-0.09272908058654868,-0.6876289266850282,-0.7252491362003443,0.013754055124165868,0.031479764838580615,-3.0782847139536615,-0.026749161990958517,1.6231899962419956,1.0,0,init,1
2026-01-14 21:27:45.756,0.2959155000855475,0.7718125438309558,-0.09107831504124339,-0.687580085143406,-0.7253078317740416,0.012726335586701767,0.03162619268833829,-3.079575847184632,-0.028380510389082667,1.6233084151010742,1.0,0,init,1
2026-01-14 21:27:45.806,0.29619347699080495,0.7723250663287665,-0.08943704288629722,-0.6875518921440509,-0.7253431893994241,0.011706457057437378,0.03182156602320654,-3.080787366495222,-0.030070050373085813,1.6233638541619149,1.0,0,init,1
2026-01-14 21:27:45.856,0.29620895586334867,0.7723263796026839,-0.08937904577230207,-0.687551975366289,-0.72534401706561,0.01168188780306189,0.03180992886497396,-3.080839074285209,-0.030087012164679246,1.623365135414809,1.0,0,init,1
2026-01-14 21:27:45.906,0.29620403810925877,0.7723030191135912,-0.08943237064094996,-0.687561243432168,-0.7253351415107635,0.011711074188598987,0.03180125407780428,-3.08080830812738,-0.030033487674061436,1.6233406203423526,1.0,0,init,1
2026-01-14 21:27:45.956,0.2961517824901849,0.7722818308908899,-0.08946824601761007,-0.6875483851205936,-0.7253460906622748,0.011752770705388563,0.03181413616249206,-3.0807305565552787,-0.029995819464823496,1.6233743468781612,1.0,0,init,1
2026-01-14 21:27:46.006,0.29616012178590356,0.7722770610383994,-0.08946132269575194,-0.6875553769346675,-0.7253400680707209,0.011744717197334501,0.03180331613753435,-3.0807568850173546,-0.029990647655515474,1.6233564537190155,1.0,0,init,1
2026-01-14 21:27:46.056,0.2961855645055001,0.772290043762584,-0.08946477509281967,-0.6875519776946774,-0.725343784878874,0.011743547079570146,0.03179246463735981,-3.0807736971689064,-0.02997682459937204,1.6233671804357477,1.0,0,init,1
2026-01-14 21:27:46.106,0.2961459244774532,0.772306814521057,-0.089456218450879,-0.687535616683946,-0.725358632991891,0.011732900740655432,0.031811450381448635,-3.080763624304085,-0.030020354994698135,1.6234099078565116,1.0,0,init,1
