timestamp,x,y,z,qx,qy,qz,qw,roll,pitch,yaw,gripper_cmd_0to1,gripper_activated,gripper_last_action,logging_active
2026-01-14 21:16:51.372,0.048313298599565284,0.818374941664133,0.3086691637363155,0.07847155122555455,0.9705482946289061,0.22545271713917092,0.03239283525322085,2.682787931605166,0.027497838340073532,2.973816548959978,1.0,0,init,1
2026-01-14 21:16:51.422,0.049586375294126885,0.8187337853784428,0.3059252409576368,0.07919907201575191,0.9708784979387575,0.22379596391570988,0.03221514809936735,2.6861924189501103,0.027108443933981815,2.9725219097972944,1.0,0,init,1
2026-01-14 21:16:51.472,0.05107534021246159,0.8191881010803921,0.3022512641682997,0.08007259335315868,0.9713233071141351,0.22158071597982362,0.03195933598227861,2.6907486643430225,0.026603748772558135,2.970990314877383,1.0,0,init,1
2026-01-14 21:16:51.522,0.05280618939260903,0.8197158740135986,0.2977605513597331,0.08108488903048412,0.9718680352925687,0.21885762825484578,0.031608563746876095,2.6963549581018484,0.02594952470088362,2.969239700426428,1.0,0,init,1
2026-01-14 21:16:51.572,0.05467877959524409,0.8203068344257781,0.2926030059245036,0.08217338795463756,0.972483827020945,0.215755407434316,0.031182441495263738,2.7027447169446277,0.025192799283235666,2.9673775808318883,1.0,0,init,1
2026-01-14 21:16:51.622,0.05647986398357703,0.8209068308571472,0.28722106050172874,0.08323185754751962,0.9731208648806511,0.21251881632540143,0.030724467949393413,2.7094114916877157,0.024422997865410915,2.965584718743135,1.0,0,init,1
2026-01-14 21:16:51.672,0.05812450723766967,0.821449744879128,0.28200591575574285,0.0841758655995328,0.9737331958253095,0.2093853633044418,0.030263123306524444,2.715867111059142,0.023688242458722867,2.9640081933943145,1.0,0,init,1
2026-01-14 21:16:51.722,0.05968506771795938,0.8219504765182517,0.2770291864748845,0.08509269190819671,0.9743059132857389,0.20639392494459444,0.029812226790766026,2.7220282204431574,0.022969248023878293,2.9624705947708843,1.0,0,init,1
2026-01-14 21:16:51.772,0.061236418472069065,0.8224082241699927,0.27210315877641733,0.08600421749905661,0.9748595759916131,0.2034464998639787,0.029353080978378545,2.728098050653084,0.02223758284534838,2.9609395813849018,1.0,0,init,1
2026-01-14 21:16:51.822,0.06286591893050755,0.8227960272938519,0.26741060772731307,0.08698035657546409,0.9753689709792003,0.20062996820758125,0.028937931474208884,2.7338885972325,0.021550256539508695,2.959254338280015,1.0,0,init,1
2026-01-14 21:16:51.872,0.06482895824994327,0.8230888165818839,0.2630455393410478,0.08815501805329178,0.9758095387037921,0.19800414239912792,0.028614621428602164,2.739266822920704,0.02093625303011066,2.9571315165251306,1.0,0,init,1
2026-01-14 21:16:51.922,0.06717333497806523,0.8232609530878584,0.2592515295341545,0.0895495742348274,0.9761531570994837,0.1957018170400491,0.02840222607992114,2.743959448806011,0.020401231698156125,2.9545197830025423,1.0,0,init,1
2026-01-14 21:16:51.972,0.07017209769194527,0.8233494373188056,0.2559210279985865,0.09134856623058672,0.9763926559719586,0.19367814840234093,0.02831246444733437,2.7480524279966363,0.0199050367888808,2.951053144747235,1.0,0,init,1
2026-01-14 21:16:52.022,0.07368102109700082,0.8233310100127974,0.25267758338920204,0.09347138888866412,0.9765846714107854,0.19169170323421886,0.028280203957478912,2.752050819407068,0.01940186512445276,2.9469213880823855,1.0,0,init,1
2026-01-14 21:16:52.072,0.07788617207427048,0.8232099274079311,0.24926674574776483,0.0962411968920042,0.9767254222056151,0.1895956376214046,0.028259084079110517,2.75625621946769,0.018710001073886196,2.941507452749468,1.0,0,init,1
2026-01-14 21:16:52.122,0.08255457945535884,0.8230467395659561,0.24544822323638152,0.09921338343626734,0.9768814764835921,0.1872483831715693,0.028237004975716518,2.760966149234519,0.01801429725164699,2.9356936342842754,1.0,0,init,1
2026-01-14 21:16:52.172,0.0873626213563691,0.8228816218388445,0.24137218833701135,0.10214557464186484,0.9770539438524926,0.18475954739534894,0.02820960881755699,2.7659628718127443,0.017380753901451874,2.929957153612069,1.0,0,init,1
2026-01-14 21:16:52.222,0.0921963567091983,0.8226449549197061,0.23717680808632963,0.10507097111099764,0.9772279682881706,0.18218581780051676,0.02817652955073017,2.771130547394333,0.016785692098123313,2.924231429172344,1.0,0,init,1
2026-01-14 21:16:52.272,0.09696673595494011,0.8223467534601331,0.2330098728960612,0.10800298952993082,0.9773827474293619,0.17963350281799279,0.02810914344778509,2.7762603577327787,0.016145574514722878,2.9184986111025264,1.0,0,init,1
2026-01-14 21:16:52.322,0.10175946696520924,0.8220390547150246,0.22889939164132975,0.11101706736807232,0.9775054158814764,0.17712651059963283,0.028010210962661992,2.7813028425014674,0.015432746906910363,2.9126074824823878,1.0,0,init,1
2026-01-14 21:16:52.372,0.10650447659779566,0.8216926207713885,0.22448427657835784,0.11395544090335535,0.977654682148684,0.17443658499483106,0.02788113657329637,2.7867212809650193,0.014760787533143305,2.906872874958322,1.0,0,init,1
2026-01-14 21:16:52.422,0.11114882351469917,0.8213090226081957,0.21952795967240857,0.11694969982132737,0.977841452892697,0.1714227811619123,0.027624098448931794,2.792821703255578,0.013928741906618199,2.9010698266720683,1.0,0,init,1
2026-01-14 21:16:52.472,0.11561115624079725,0.8209654674629475,0.2143887401669312,0.11972253336536694,0.9780529638810304,0.16832269649130646,0.027320041983973507,2.79910887706511,0.013137234660483145,2.895714534051745,1.0,0,init,1
2026-01-14 21:16:52.522,0.11991216213821884,0.8205519409636003,0.20918014798818924,0.12240085082657891,0.9782658030654491,0.16518211276511166,0.026998516479533864,2.805481226527949,0.01238690528586843,2.890544352390986,1.0,0,init,1
2026-01-14 21:16:52.572,0.12416957894690231,0.82007910691684,0.20396881042423215,0.12506428702431796,0.9784676740932641,0.16202076544734584,0.02663092994007632,2.811905485128633,0.011589244551836513,2.885410387457905,1.0,0,init,1
2026-01-14 21:16:52.622,0.12841120918049842,0.8195820228744297,0.19877928520035995,0.12768835959859778,0.9786514258976209,0.15888955042088826,0.02629030579169453,2.818260598727062,0.010881613145914511,2.880336179888825,1.0,0,init,1
2026-01-14 21:16:52.672,0.1325338048530462,0.8190257929508086,0.19349639167056196,0.1302480401235754,0.9788364785732729,0.1557093791620396,0.025868619971201618,2.8247346204684862,0.010080785564690534,2.875407978377934,1.0,0,init,1
2026-01-14 21:16:52.722,0.13653701223561554,0.8184579110163847,0.18855995673008438,0.13272244737974462,0.978982098936917,0.15273726505580287,0.025497642751296415,2.8307765150851703,0.009380281949369943,2.8706223550027774,1.0,0,init,1
2026-01-14 21:16:52.772,0.14054645895922102,0.8177966936307061,0.1840561456030868,0.1352230170684003,0.9790690193206366,0.1500163417914104,0.025173165414159326,2.8363001993718377,0.008721318616137733,2.865759736222954,1.0,0,init,1
2026-01-14 21:16:52.822,0.1445887498444089,0.8171140547397769,0.17997960594722062,0.13787055987713684,0.9790814561222629,0.1475514319961965,0.024895499845273852,2.8412955040444183,0.008063534781178466,2.8605799548305275,1.0,0,init,1
2026-01-14 21:16:52.872,0.14888591208211047,0.8163319785485642,0.17586877320030714,0.14091951147011286,0.9790287203622373,0.14505299846259553,0.02457811282248959,2.8463658927574067,0.0072438246804910735,2.85460310973074,1.0,0,init,1
2026-01-14 21:16:52.922,0.15358160329060153,0.8154409638897743,0.17139326906496635,0.1449324399615327,0.9788467245405154,0.14237707181151982,0.024133941358152434,2.8518231494968784,0.005976781656538371,2.8467276123488126,1.0,0,init,1
2026-01-14 21:16:52.972,0.15869096128700905,0.8143822123385487,0.1664872486600708,0.15069943415099182,0.9784110457223594,0.13947138057651667,0.02343587325300022,2.857812845699122,0.003823327562279419,2.8353990750958027,1.0,0,init,1
2026-01-14 21:16:53.022,0.1643052655926207,0.8131557228486468,0.16135053980552413,0.1584723910114326,0.9776300359952835,0.1364531858555525,0.022506489660773978,2.8641106310246776,0.0007579154196285709,2.820085344555924,1.0,0,init,1
2026-01-14 21:16:53.072,0.1704616469092508,0.8117829807537353,0.1561425022869202,0.1690047394766304,0.9763061793330744,0.13345935656068367,0.02126599108669476,2.8705001321895467,-0.0035862982448949593,2.799266486669941,1.0,0,init,1
2026-01-14 21:16:53.122,0.17715336633026768,0.8101902087682604,0.15073911439453513,0.1827393192975699,0.9742806158379994,0.13036733861168698,0.01969720305767275,2.877287242835545,-0.009265403750814756,2.7720060264695947,1.0,0,init,1
2026-01-14 21:16:53.172,0.18426044777066594,0.8085601186031476,0.14519510006480837,0.19938265145301595,0.9714589456822695,0.12726545487368263,0.017820750524406053,2.884359516952114,-0.01612549147756936,2.7388195775830697,1.0,0,init,1
2026-01-14 21:16:53.222,0.19110606350403253,0.8067341480251919,0.13966959999590028,0.21747263443671633,0.9680114103940468,0.12413997991326893,0.015774283033334825,2.891734203888228,-0.02345687604143557,2.70255856454371,1.0,0,init,1
2026-01-14 21:16:53.272,0.197539974665366,0.8049101509505762,0.13459779833829746,0.23504652492564979,0.9642910855586636,0.12125882542654517,0.013861121478607517,2.8987283752836808,-0.030275244098569586,2.6671109452915687,1.0,0,init,1
2026-01-14 21:16:53.322,0.20324304751233016,0.8032032923772331,0.13013316623653076,0.2504500985365444,0.9607484324168145,0.1186917537490048,0.01222560197513646,2.905051795918601,-0.03596902241998954,2.635853052229909,1.0,0,init,1
2026-01-14 21:16:53.372,0.2079883372064883,0.8017398380532527,0.1262818468361329,0.2627224083352876,0.9577543819533163,0.11646210935234101,0.010957056764064773,2.910514956107901,-0.040216913703192775,2.6108098957642927,1.0,0,init,1
2026-01-14 21:16:53.422,0.21177676139735196,0.8004925019198887,0.12268673037184294,0.2711695049001003,0.9556640385443271,0.11433304508232837,0.010064782540306984,2.915479178328979,-0.04278321956568656,2.5934859911318617,1.0,0,init,1
2026-01-14 21:16:53.472,0.21462306787082985,0.7994495394419865,0.11904715978337282,0.2757505974878567,0.954616691833899,0.11215334376130483,0.009497743961136255,2.9202139683638095,-0.043733232596618404,2.584042974438859,1.0,0,init,1
2026-01-14 21:16:53.522,0.2166697209932388,0.7986094406984479,0.11525278042032672,0.27767749415726933,0.954329491562454,0.10985144439678433,0.009115423008734694,2.924966653719947,-0.04362214699610691,2.5800401854537958,1.0,0,init,1
2026-01-14 21:16:53.572,0.2182017879907216,0.7978238102469294,0.11100381301607565,0.27901520185750056,0.9542356607736515,0.10728127200310648,0.008691922554099177,2.930232328704817,-0.043291447776757856,2.577252268623412,1.0,0,init,1
2026-01-14 21:16:53.622,0.2196757579965211,0.7970648845029489,0.10645402609553906,0.281472024883686,0.9538213094627046,0.10456251532906713,0.008067788469440153,2.935943506648925,-0.04348609307160304,2.5721711767433084,1.0,0,init,1
2026-01-14 21:16:53.672,0.2213103931077265,0.7961209244776254,0.10131755265736883,0.28598060140947473,0.9528199908277636,0.10147577557303931,0.0071991435814132585,2.9425936504159105,-0.04433575421364516,2.5628465841256016,1.0,0,init,1
2026-01-14 21:16:53.722,0.22365581909517243,0.794938824278662,0.09494778157193076,0.29505216090231473,0.950456250676162,0.0976896979078829,0.005819005082820344,2.951103774337057,-0.046602560154787386,2.5440458224641307,1.0,0,init,1
2026-01-14 21:16:53.772,0.22651443705663776,0.7936609785704185,0.08811673914779464,0.3091724880965929,0.946372077838275,0.09368161475454112,0.004002243022317371,2.9605874499446685,-0.05037363492804155,2.514641483745688,1.0,0,init,1
2026-01-14 21:16:53.822,0.22976499994467856,0.7921205157096934,0.08099985175900581,0.3273554583269997,0.9406560066681383,0.08944863420084147,0.0019033817996630428,2.9709823936532493,-0.055009882164031784,2.4765003339014786,1.0,0,init,1
2026-01-14 21:16:53.872,0.23281652588699844,0.7903513957033131,0.07360727545317669,-0.3467598036898602,-0.9340975668080878,-0.08496652368229927,0.0002531432894142121,2.982078098233264,-0.05943385555181767,2.4354315057424762,1.0,0,init,1
2026-01-14 21:16:53.922,0.23563412106789033,0.7886212618302576,0.06631052591913097,-0.36530447746056666,-0.9273975989025561,-0.08050792096581942,0.0021924777758176757,2.9930299390481845,-0.06292792866525344,2.395798952601639,1.0,0,init,1
2026-01-14 21:16:53.972,0.23814335438429865,0.7869182334343492,0.05939050661426809,-0.38232140020358535,-0.9208727609564463,-0.07621386428404447,0.0038925525962975223,3.003468569757314,-0.06549228256550121,2.359089228602945,1.0,0,init,1
2026-01-14 21:16:54.022,0.24029486232978572,0.7854490802346117,0.05304251375071631,-0.39746319646463163,-0.9147502666535382,-0.0722962443063008,0.0053113249384755,3.012903858627285,-0.06723791613316235,2.3261396344783685,1.0,0,init,1
2026-01-14 21:16:54.072,0.2421985879585542,0.7843371977332544,0.04711271514659221,-0.4109535500202709,-0.9090422581662783,-0.06867838369958824,0.006529334277113485,3.0215279482451316,-0.06837138896672537,2.2965505262207495,1.0,0,init,1
2026-01-14 21:16:54.122,0.24393835623781362,0.7834582804710922,0.0413971836381577,-0.42300369324837256,-0.9037464205870185,-0.06521639559963778,0.007556753230088785,3.029608602297233,-0.06888679930592391,2.269920905620192,1.0,0,init,1
2026-01-14 21:16:54.172,0.24558245886997182,0.782798071961249,0.036008798894066496,-0.43374666764013714,-0.8988591830784612,-0.06200875155277148,0.008420928539320591,3.0369844381592164,-0.06898534018776244,2.246020860358646,1.0,0,init,1
2026-01-14 21:16:54.222,0.24695790607183613,0.7821273011489223,0.031004012582318635,-0.4424110353630899,-0.8948212869810688,-0.05902981622340946,0.009100601690721116,3.04361623150472,-0.06857143344815224,2.2266202280242027,1.0,0,init,1
2026-01-14 21:16:54.272,0.2485737453016463,0.7815143454095625,0.025578221905624032,-0.4497881801694155,-0.8913342016858614,-0.05586144389175322,0.00966607320695425,3.0503714754434923,-0.06753436209799032,2.2099971222451265,1.0,0,init,1
2026-01-14 21:16:54.322,0.2503882768081126,0.7812018581534939,0.020402751522029416,-0.4549498901682718,-0.888884070955797,-0.05296322009028583,0.010030112391949734,3.0562733216747775,-0.06607049580932935,2.1982940475793535,1.0,0,init,1
2026-01-14 21:16:54.372,0.25279614326220723,0.7810073956678955,0.015341433287776901,-0.4587814900779789,-0.8870670852115322,-0.05025938355807829,0.010272539146075437,3.0616006157335063,-0.06438548816594644,2.189561694930813,1.0,0,init,1
2026-01-14 21:16:54.422,0.2558482358284221,0.7809290212537788,0.010492901668701093,-0.4619752792886914,-0.885542846848193,-0.04779164843096147,0.010424301529834363,3.0663626452468877,-0.0626604478042763,2.182260522263399,1.0,0,init,1
2026-01-14 21:16:54.472,0.2593343200994899,0.781030307987758,0.0057280164582292625,-0.4648460863439315,-0.8841583520033928,-0.045507867641975105,0.010543176753497044,3.0707313095217947,-0.06098978804768394,2.1756858989994794,1.0,0,init,1
2026-01-14 21:16:54.522,0.26276675486894174,0.7811036754535887,0.0008906129679095154,-0.46804091739991943,-0.8825862894910196,-0.04318258294612006,0.010696063388822487,3.075214863529359,-0.05933764401523936,2.168368218780572,1.0,0,init,1
2026-01-14 21:16:54.572,0.26560203386568015,0.7808905681318654,-0.0037610943940626362,-0.4717472769193923,-0.8807213279585838,-0.04082047918593325,0.010869115743129801,3.079802626959153,-0.057691220633765375,2.1598772288178596,1.0,0,init,1
2026-01-14 21:16:54.622,0.2676076085788112,0.7803483391575021,-0.00800919278628387,-0.4766094650192774,-0.8782012351586252,-0.03850058618903919,0.01112264730194339,3.084450980594366,-0.056265014918217254,2.148741401136074,1.0,0,init,1
2026-01-14 21:16:54.672,0.26889784662149036,0.779363520412906,-0.01185520237872148,-0.48321505903817497,-0.8746792073617166,-0.03617612225441772,0.011435869291222762,3.089256642277556,-0.054994845455538365,2.1335904982236418,1.0,0,init,1
2026-01-14 21:16:54.722,0.2695435045996986,0.7783382848618676,-0.01504460862160284,-0.49290924581832163,-0.8693323720402495,-0.03407089934396524,0.011869124971124963,3.0939675433997484,-0.05425075912177116,2.1112863412588534,1.0,0,init,1
2026-01-14 21:16:54.772,0.2697293836909184,0.7777047876335349,-0.017295564193605895,-0.506100922352582,-0.8617723541189366,-0.03250056412677997,0.01240884368558001,3.098058813638393,-0.05431102398500274,2.0807484940845997,1.0,0,init,1
2026-01-14 21:16:54.822,0.26960667236793023,0.777414720890615,-0.018534030172446148,-0.5209446272585534,-0.8529103636954495,-0.03149926321305456,0.012977027717379182,3.1013094305178672,-0.05498292588998138,2.046077059001273,1.0,0,init,1
2026-01-14 21:16:54.872,0.26955375226927875,0.7773396009133569,-0.018880136440157347,-0.5360213027781265,-0.8435250177885211,-0.03104285520027706,0.013529540787841328,3.1036572124054587,-0.05613375055162168,2.010494856919234,1.0,0,init,1
2026-01-14 21:16:54.922,0.2695609080186604,0.7772850881026458,-0.018911489098561496,-0.5496366867167684,-0.8347185147133954,-0.030789936828146354,0.014017617479257609,3.1055330468503475,-0.05727940389144709,1.9780134741927988,1.0,0,init,1
2026-01-14 21:16:54.972,0.2695042596953698,0.7772382431467519,-0.018986505464660436,-0.562995485495418,-0.8257697195569308,-0.030498417659259754,0.014501727308424259,3.1074875366076977,-0.058324178864071825,1.9457983045670635,1.0,0,init,1
2026-01-14 21:16:55.022,0.26950504939759384,0.7772103541616352,-0.01914542710227385,-0.5743261846054754,-0.8179332274919322,-0.03019745618505847,0.014925906374485784,3.1092762178648434,-0.05913763305526212,1.9181901207164873,1.0,0,init,1
2026-01-14 21:16:55.072,0.2693221369909246,0.7769083005782869,-0.019956902634772206,-0.5845712787184879,-0.8106641956547385,-0.029447888138503065,0.015257911556636203,3.111629662945915,-0.05920144002674768,1.89298350697105,1.0,0,init,1
2026-01-14 21:16:55.122,0.268969620306792,0.7762438926589049,-0.021907576089412767,-0.5935170100983033,-0.8041862723990297,-0.027970648843707112,0.01548033630727414,3.1149329283332596,-0.05813299699408044,1.8707699416062917,1.0,0,init,1
2026-01-14 21:16:55.172,0.2687111010019245,0.7755672299626,-0.0248582022962843,-0.6006085251608971,-0.7989685209717742,-0.026016837760259117,0.015550760533939046,3.118661102016328,-0.05613047515326567,1.8530217806032308,1.0,0,init,1
2026-01-14 21:16:55.222,0.268522506382716,0.7745445929476745,-0.02894318929371692,-0.6058248844011246,-0.7951035516177318,-0.023390984564784577,0.015472992158038882,3.1231170262747736,-0.052971712727618116,1.8398782281398323,1.0,0,init,1
2026-01-14 21:16:55.272,0.268516155561412,0.7731672227880266,-0.034033460442211894,-0.609427870517425,-0.792438503394424,-0.02016484655068513,0.015240339175674461,3.128193306405713,-0.04875141107296943,1.830750426334433,1.0,0,init,1
2026-01-14 21:16:55.322,0.2690450326679537,0.7713141572698742,-0.040058397510467664,-0.6117389589074916,-0.7907489685698688,-0.016414564340875976,0.014902246071187423,3.1338581737992977,-0.04366460223611785,1.8248672934996966,1.0,0,init,1
2026-01-14 21:16:55.372,0.27038757329716334,0.7690082734303731,-0.04663369881044516,-0.6137631283954231,-0.7892610393910051,-0.012335658253042895,0.014479829320748315,3.1398936875125063,-0.038008225292499996,1.8197068783812222,1.0,0,init,1
2026-01-14 21:16:55.422,0.27285108608082925,0.7664474981151743,-0.052634708918873785,-0.6161192628936936,-0.7874789345688733,-0.008640405919162375,0.014118246603458909,-3.1378018224168813,-0.03288861337239119,1.8137035660584977,1.0,0,init,1
2026-01-14 21:16:55.472,0.2763442297585845,0.7635924521234405,-0.05813964941864534,-0.6198215984054908,-0.7846044614088191,-0.005229695897836748,0.013772275347801649,-3.1327228141729804,-0.028098231467116538,1.804265891885574,1.0,0,init,1
2026-01-14 21:16:55.522,0.2802919637770698,0.7610318964014502,-0.062384518483567714,-0.624905288851791,-0.7805787096217464,-0.002617489587095604,0.013542776619681543,-3.128748880170053,-0.024416198253408003,1.7912631058145398,1.0,0,init,1
2026-01-14 21:16:55.572,0.2841268207553886,0.7586205645285096,-0.06564025980572397,-0.6314470616511506,-0.775303673158498,-0.0005577521295963052,0.01336082451163623,-3.1255798427387917,-0.021423413247415552,1.7744395457997992,1.0,0,init,1
2026-01-14 21:16:55.622,0.2875637769625131,0.7565819194313853,-0.06790368577565314,-0.6390679677183526,-0.7690359848233206,0.000932860386573434,0.013225598461287886,-3.1232493424182852,-0.019150770468076846,1.7546991466973687,1.0,0,init,1
2026-01-14 21:16:55.672,0.2901315614628228,0.7551111275584504,-0.06931901169544731,-0.6474996658891001,-0.7619504187913396,0.0019346402400698872,0.013114844427111869,-3.121656372406826,-0.017481254937418627,1.7326713429635916,1.0,0,init,1
2026-01-14 21:16:55.722,0.29167204830266835,0.7542926513128451,-0.07010401780123819,-0.6562876619915455,-0.7543937300481866,0.002541161885225469,0.01304405143841077,-3.1206329459115816,-0.016345962758931444,1.7094917507221556,1.0,0,init,1
2026-01-14 21:16:55.772,0.29226222216691855,0.7539820076046717,-0.07032543403288272,-0.6652936084909231,-0.7464633749931058,0.002821720603613606,0.012995467974016996,-3.1200841367084498,-0.015647374912223046,1.6854927129768646,1.0,0,init,1
2026-01-14 21:16:55.822,0.2922042752721342,0.7539855155646756,-0.07035525845982558,-0.6739099833966273,-0.7386935310118816,0.003004713570195426,0.012968161624412783,-3.1196705234045226,-0.015109756189313272,1.6622886695708856,1.0,0,init,1
2026-01-14 21:16:55.872,0.29216050743087557,0.7539435155856994,-0.0704029164913381,-0.6829182818140671,-0.7303732847343422,0.0032220276815841673,0.012926865362852239,-3.119225892042224,-0.01448261728992989,1.6377644219751253,1.0,0,init,1
2026-01-14 21:16:55.922,0.29213702975326983,0.7539123300697461,-0.07056243909957895,-0.6907687500549724,-0.7229528930410585,0.003443030843323631,0.012876099163444945,-3.118821386248585,-0.013861393938218006,1.6161617223538216,1.0,0,init,1
2026-01-14 21:16:55.972,0.29201524236736803,0.7537710946059325,-0.07103259051540725,-0.6968528698787305,-0.7170897026470904,0.0038740084782455278,0.01278390228354749,-3.1182155476415083,-0.012935542266288784,1.5992678541333953,1.0,0,init,1
2026-01-14 21:16:56.022,0.2918429548101552,0.7535200207435196,-0.0719681904343014,-0.7001091760926186,-0.7139093391230894,0.004504202093407905,0.01266132802080411,-3.1174288204309653,-0.01177148606280084,1.5901725462086145,1.0,0,init,1
2026-01-14 21:16:56.072,0.29154414717756605,0.7531099867727655,-0.07356479846204884,-0.7007589125778023,-0.7132678791898787,0.005509776134245114,0.012470818966667794,-3.1162506891362245,-0.01006818982606858,1.588360970376463,1.0,0,init,1
2026-01-14 21:16:56.122,0.2911381183369509,0.7525065807308567,-0.07587553834752532,-0.700782272816018,-0.7132367588697882,0.006946517915349749,0.01221792914479689,-3.114555319538171,-0.007692635011401872,1.5883075964655373,1.0,0,init,1
2026-01-14 21:16:56.172,0.2905511116071063,0.7517036646568214,-0.0788179724615612,-0.7007798752131047,-0.7132243103678308,0.008792549628207346,0.011888678129756703,-3.112383373499306,-0.004635321457268017,1.5883298651675424,1.0,0,init,1
2026-01-14 21:16:56.222,0.2898824197673535,0.7508702760449032,-0.08206096490260412,-0.7007530942936901,-0.7132290834882015,0.010808506593575436,0.011513100781957096,-3.1100338251605733,-0.001274768102618461,1.588422352463978,1.0,0,init,1
2026-01-14 21:16:56.272,0.2892560031740078,0.7499934705512987,-0.0854818268175401,-0.7007446874867505,-0.7132081298310208,0.01292551522455673,0.011134521014121407,-3.107543912279129,0.002232512289697449,1.5884631006171428,1.0,0,init,1
2026-01-14 21:16:56.322,0.28881448503751955,0.7493171098492291,-0.08899428609827091,-0.7007555445936494,-0.7131626256475447,0.014991771850469649,0.010769534694750792,-3.1051072119640684,0.0056503052803566906,1.588448893035266,1.0,0,init,1
2026-01-14 21:16:56.372,0.28855149335776126,0.749032535251771,-0.09217516331365162,-0.7007309669308974,-0.7131531587652854,0.01671900688018224,0.01044791539617696,-3.1030929625394803,0.008529227393221518,1.58853180772093,1.0,0,init,1
2026-01-14 21:16:56.422,0.28884940689702066,0.7494671528517977,-0.09488311478119632,-0.700740285536287,-0.7131184490218437,0.017891209739875912,0.010248634311312559,-3.101699526987293,0.01045739303133637,1.5885142579710698,1.0,0,init,1
2026-01-14 21:16:56.472,0.28930188816600516,0.750178005727877,-0.09690314607110839,-0.7007272545045766,-0.7131149254890474,0.018596963439405437,0.01012772383421082,-3.1008615552037497,0.011618597612042765,1.5885559469903516,1.0,0,init,1
2026-01-14 21:16:56.522,0.2897176898372693,0.7507840949484741,-0.09840075687958948,-0.7007265339813302,-0.7131043389482328,0.019073537086670946,0.01003626079370127,-3.1003095538696117,0.012417183920543879,1.5885618268816255,1.0,0,init,1
2026-01-14 21:16:56.572,0.2899110421040003,0.7510595467110192,-0.0995236342023075,-0.7007239743119803,-0.7130958803435908,0.019517291090184553,0.009962560410015881,-3.099779450086833,0.01314432448363187,1.5885721168253193,1.0,0,init,1
2026-01-14 21:16:56.622,0.28977347350395966,0.7509323787888627,-0.1003588595557204,-0.7007241328879803,-0.7130832035037012,0.020003771660335117,0.009893613528334592,-3.0991817356508946,0.013924761839515565,1.5885745987761586,1.0,0,init,1
2026-01-14 21:16:56.672,0.28964602231839687,0.7509118062645163,-0.10054280381357948,-0.7007125311893981,-0.7130896783926348,0.020141151750793316,0.00996961434495595,-3.0988789146668925,0.014008314819024325,1.5886041259396186,1.0,0,init,1
2026-01-14 21:16:56.722,0.2894100770482087,0.7510510928526134,-0.10052111946971679,-0.7006959461905105,-0.7131010823037479,0.020179987206792222,0.010237456995877402,-3.0984478029439173,0.013679813795611463,1.5886397140286237,1.0,0,init,1
2026-01-14 21:16:56.772,0.2892865470190083,0.7511335556766602,-0.10050967423220256,-0.7006729402396696,-0.713121752332057,0.02018958919103042,0.010352664152294057,-3.0982722090955894,0.013527590216267437,1.588699427470634,1.0,0,init,1
2026-01-14 21:16:56.822,0.28922572897163906,0.7510998669544117,-0.10060708006121474,-0.700713733365387,-0.7130797574102279,0.0202589670765906,0.01034880176164089,-3.098179371300102,0.013632853093715574,1.588585250300141,1.0,0,init,1
2026-01-14 21:16:56.872,0.28912815606753073,0.7510587072984752,-0.10078757888072458,-0.7007375072405928,-0.713053206908512,0.020378986230248124,0.010332811038357415,-3.098030936297071,0.013825392357690727,1.588519306197235,1.0,0,init,1
2026-01-14 21:16:56.922,0.28901539159502615,0.7509592705410263,-0.10118833111919526,-0.7007376742951308,-0.713046158623768,0.020637712489163403,0.010294285723357931,-3.097715656360967,0.014243125094095794,1.5885205314925088,1.0,0,init,1
2026-01-14 21:16:56.972,0.2888085821771723,0.7508043042454384,-0.1018716475415018,-0.7006908046908951,-0.7130811756964179,0.02105392189052754,0.010215941565407718,-3.0972304145269196,0.014935542971639003,1.5886553294006613,1.0,0,init,1
2026-01-14 21:16:57.022,0.28857189143254386,0.7504812777043497,-0.10291599357357506,-0.7006793087057498,-0.7130745769092547,0.02171225229857283,0.010086239013784894,-3.0964721928456242,0.016042858785740736,1.588693133334197,1.0,0,init,1
2026-01-14 21:16:57.072,0.2884017821657387,0.7502154953856147,-0.10398790345045246,-0.7006872937244795,-0.7130484290630467,0.022353388157147068,0.009978991015244697,-3.095707450294471,0.01709529504133278,1.5886753639814213,1.0,0,init,1
2026-01-14 21:16:57.122,0.2882660022142926,0.7500364536115101,-0.10466282534072134,-0.7006783922488534,-0.7130448045117908,0.022775955185516134,0.00990723269593611,-3.0952045604855787,0.01778957601420415,1.5887033918428928,1.0,0,init,1
2026-01-14 21:16:57.172,0.288217272966523,0.7499628337120949,-0.10486002168411979,-0.7006831761720963,-0.7130359429295845,0.02291577368372984,0.009884231703956104,-3.095037313004824,0.0180187442558881,1.588690963734809,1.0,0,init,1
2026-01-14 21:16:57.222,0.28824422691389084,0.7499914980313337,-0.10483704597159169,-0.7006653486071152,-0.7130551667264265,0.022865183911338176,0.009878351619506934,-3.095117323669474,0.017955029507763207,1.5887411570522818,1.0,0,init,1
2026-01-14 21:16:57.272,0.2882309351152298,0.7499387223845679,-0.10488156681610171,-0.7006751065064261,-0.7130443500566885,0.02291402666336294,0.009853799090400555,-3.0950822473997257,0.01805916621013768,1.5887148028354878,1.0,0,init,1
2026-01-14 21:16:57.322,0.28822866377015716,0.7499157863349175,-0.10490118873519343,-0.7006860834865636,-0.7130329546225599,0.022933792336960964,0.009851862744079662,-3.095057022059942,0.018090359357941378,1.588684113884244,1.0,0,init,1
2026-01-14 21:16:57.372,0.28820370390432243,0.7498945963963582,-0.10492179044860131,-0.7006928739880391,-0.7130250695169572,0.02296755963413488,0.00986092222728567,-3.0949962950760495,0.01812523363686992,1.5886647295907599,1.0,0,init,1
2026-01-14 21:16:57.422,0.2882349726362862,0.7499071764586936,-0.1049083212349553,-0.7006859033241296,-0.7130325901095027,0.022950356938547217,0.009852484000276173,-3.0950325001355545,0.01811268914866042,1.588684601738106,1.0,0,init,1
2026-01-14 21:16:57.472,0.2882367262890796,0.749926460230104,-0.10489167584068133,-0.7006803635081731,-0.7130387001491597,0.022927899232188236,0.009856557231091028,-3.0950587115855157,0.018075028214197934,1.5886999605810825,1.0,0,init,1
2026-01-14 21:16:57.522,0.2882328259823931,0.7498890825365372,-0.10491988241861008,-0.7006829089090898,-0.7130353989035634,0.02295918485505204,0.009841590518007707,-3.095035086579073,0.018140406926572775,1.5886934352256374,1.0,0,init,1
2026-01-14 21:16:57.572,0.28822722160830266,0.7499103220694032,-0.10488866756159342,-0.7006860725524998,-0.7130330152698111,0.022935784299573343,0.009843610351787284,-3.0950657421044845,0.018104919983099647,1.5886844744290867,1.0,0,init,1
2026-01-14 21:17:02.272,0.2899760614443024,0.7523757156547163,-0.09790228712419963,-0.7004926895037147,-0.7133436068115843,0.018378037153359957,0.010636650002795497,-3.1004572535122352,0.010572385746174582,1.5891920995990567,1.0,0,init,1
2026-01-14 21:17:02.322,0.29077030857698677,0.7535542960326188,-0.09424038389246825,-0.7004967757369501,-0.7133900167685643,0.0160212834619455,0.011057560007371873,-3.103231975580218,0.006669058414139365,1.5891617626749774,1.0,0,init,1
2026-01-14 21:17:02.372,0.29135726276250684,0.7544065017423661,-0.0912837253096944,-0.7005003591677602,-0.7134200782886593,0.014175870626877118,0.011405410663900594,-3.105378815833622,0.003586714684001219,1.5891357996002915,1.0,0,init,1
2026-01-14 21:17:02.422,0.2916334629864614,0.7548720109547085,-0.08963948097778619,-0.7004745527249188,-0.7134617611054364,0.013160714220977907,0.011597931985842807,-3.1065579793685276,0.0018881299772336442,1.5891991762288935,1.0,0,init,1
2026-01-14 21:17:02.472,0.2917767438387152,0.7550442680882476,-0.08917218241233203,-0.7004954561287857,-0.7134462105066726,0.012836467081997021,0.011655289333428043,-3.1069404753680914,0.0013529301255234742,1.5891379123036347,1.0,0,init,1
2026-01-14 21:17:02.522,0.2918398029891644,0.7551171707579644,-0.08891685870075099,-0.7004925440023841,-0.7134515072425696,0.012670770042810902,0.011687352005294494,-3.107132047725336,0.0010748422827703134,1.5891445700899625,1.0,0,init,1
2026-01-14 21:17:02.572,0.2918299055689349,0.7550886946328088,-0.08893145935584035,-0.7005013093157078,-0.7134426119346364,0.012692279642479974,0.011681659143306192,-3.1071093372793195,0.0011135304237759871,1.5891202725400555,1.0,0,init,1
2026-01-14 21:17:02.622,0.29182371333138907,0.7551195416494735,-0.08890854701413727,-0.7004793006188131,-0.7134646087605531,0.012669241996328864,0.011682968713807931,-3.107140351301694,0.0010783143497708149,1.5891818885675038,1.0,0,init,1
2026-01-14 21:17:02.672,0.2918217328376748,0.7550826992130611,-0.08892731516373477,-0.7005039230052433,-0.7134402869849136,0.012693646760728022,0.011665422969701461,-3.1071301429210902,0.0011387335297590741,1.5891137065030627,1.0,0,init,1
2026-01-14 21:17:02.722,0.2918174598830317,0.7551068635387927,-0.0889219111497286,-0.7004818907228524,-0.7134619575331622,0.012680368399418792,0.011677507419878934,-3.107132126734431,0.0011018224801224163,1.5891748857376429,1.0,0,init,1
2026-01-14 21:17:02.772,0.2918234940378279,0.7550934294077858,-0.08892816076681959,-0.7004903305071917,-0.7134535409640261,0.012695945498600527,0.011668535457148507,-3.107122478459431,0.001136858482186411,1.5891516536376733,1.0,0,init,1
2026-01-14 21:17:02.822,0.29182043730624857,0.7551047599192832,-0.08892294496597843,-0.7005040823707451,-0.7134400424682805,0.012691189453121168,0.011673478275274367,-3.1071223621008164,0.001123806607725535,1.5891128835065376,1.0,0,init,1
2026-01-14 21:17:02.872,0.29179166490997877,0.7550816974491361,-0.0889529500084205,-0.7004805256635389,-0.7134628111663063,0.012718234716942068,0.011666051366617637,-3.1070941287066467,0.0011711641413296753,1.5891792475693978,1.0,0,init,1
2026-01-14 21:17:02.922,0.2918060325838557,0.7550790502331957,-0.08893783170586331,-0.700491709963021,-0.7134520512488698,0.012705181295366253,0.011666756623621087,-3.1071117906423096,0.0011524057079482439,1.5891478711582636,1.0,0,init,1
2026-01-14 21:17:06.022,0.29394812400735404,0.7582373251659197,-0.08171879576296381,-0.7004667748933032,-0.7135324652414922,0.007706283115637596,0.012582985238610508,-3.1129627160672007,-0.00716080759145095,1.5891737638623484,1.0,0,init,1
2026-01-14 21:17:06.072,0.29463593822510054,0.7592994304020535,-0.07784636934606476,-0.7004453451777187,-0.7135675630741369,0.005313857712011374,0.013015923460150965,-3.1157707054940174,-0.011131577658565425,1.5892123169527774,1.0,0,init,1
2026-01-14 21:17:06.122,0.29539241630933993,0.7603967556787462,-0.07379191030834736,-0.7004187499211519,-0.7135992997840052,0.00279373679586216,0.013483662016819723,-3.1187123321027723,-0.01533089282471943,1.5892630776156147,1.0,0,init,1
2026-01-14 21:17:06.172,0.29611686933433407,0.7614736247752251,-0.06974114057297556,-0.7003962411646314,-0.7136181316052914,0.00030111595487688434,0.013934738455037239,-3.1216381079837867,-0.019467592713480884,1.5893027465367582,1.0,0,init,1
2026-01-14 21:17:06.222,0.29684783351352056,0.7625434373935156,-0.06564506051818784,-0.700370013916765,-0.7136312203855198,-0.0022499588077964498,0.014396617056355532,-3.1246324410539135,-0.02370157721791002,1.5893517649624542,1.0,0,init,1
2026-01-14 21:17:06.272,0.29755310920120154,0.7636205447562259,-0.061458984655226354,-0.7003161891212734,-0.7136612814022587,-0.004841996976767689,0.014878365072140043,-3.127658704319346,-0.028021750961815407,1.5894764852893593,1.0,0,init,1
2026-01-14 21:17:06.322,0.29831478272841766,0.76468869930448,-0.057251728770993396,-0.7002794808418634,-0.7136652148463585,-0.007438631517563513,0.01533872847720091,-3.130721354514411,-0.032317301056814074,1.5895539648789425,1.0,0,init,1
2026-01-14 21:17:06.372,0.29912063622940993,0.7659418053975173,-0.05285222234362734,-0.7002017345942689,-0.7136960525437164,-0.010210864236011858,0.01584972259213518,-3.133966279857647,-0.03693149338350354,1.589743013459952,1.0,0,init,1
2026-01-14 21:17:06.422,0.3001858285282095,0.7676824074290978,-0.04804489501421719,-0.7000846964135246,-0.7137453069218714,-0.013381818630388799,0.016431117573983606,-3.137685236744328,-0.04220460720675386,1.5900375193586516,1.0,0,init,1
2026-01-14 21:17:06.472,0.30148683046717695,0.7699656702353489,-0.04288357752748684,-0.6997504440397693,-0.71398264611191,-0.016930176085672766,0.017072382812282665,3.1413094372100567,-0.04809110158360322,1.5909366717592777,1.0,0,init,1
2026-01-14 21:17:06.522,0.30292915154198724,0.7732076952319917,-0.03667049848624676,-0.6990064322294747,-0.7145728891040773,-0.02134334432986723,0.017890095362792572,3.136092009472337,-0.055434210950501585,1.5929721097157854,1.0,0,init,1
2026-01-14 21:17:06.572,0.3040462595769737,0.7768083570875741,-0.03032435236162523,-0.6983728902411366,-0.7150208695770647,-0.02589419348257303,0.01870703048019218,3.13066998316053,-0.06296102885369131,1.5946966599130905,1.0,0,init,1
2026-01-14 21:17:06.622,0.30429345443506556,0.7805962093692577,-0.02402856291439215,-0.6973677948486523,-0.715803444882784,-0.030335513510311416,0.01957916295281896,3.1254311465455946,-0.07039781736576614,1.5974551380290543,1.0,0,init,1
2026-01-14 21:17:06.672,0.30368856577292885,0.7843711652362929,-0.018127875518795078,-0.6960029147051073,-0.7169217447393605,-0.03445427944947048,0.02039748193978887,3.1205195661407434,-0.07728426620560529,1.6012195883357236,1.0,0,init,1
2026-01-14 21:17:06.722,0.3021791979021015,0.7880435519244191,-0.012747636414155883,-0.6942019157785401,-0.7184572432201813,-0.0381557559706026,0.02114303857476195,3.1160294314692547,-0.0834531697900325,1.6062002533740491,1.0,0,init,1
2026-01-14 21:17:06.772,0.29989249328504347,0.7916880746458279,-0.007889569226135318,-0.6916513974806021,-0.7207075061317288,-0.04149849894867429,0.02183825893978475,3.11186298914963,-0.08900043388545555,1.6132599741584497,1.0,0,init,1
2026-01-14 21:17:06.822,0.2970653189845372,0.795322477965105,-0.003609533990299868,-0.6883026402750204,-0.7237111940948976,-0.0444776367969048,0.02243485585280185,3.107944306735226,-0.0938385201693491,1.622519149384039,1.0,0,init,1
2026-01-14 21:17:06.872,0.2938077322514989,0.7989180884186637,0.0001356140865073907,-0.6839062747133815,-0.7276834045607738,-0.0471540974476206,0.022925122211370837,3.104134899368094,-0.09801931090607859,1.6346392208181164,1.0,0,init,1
2026-01-14 21:17:06.922,0.2902339791222554,0.8025516369232433,0.0033604442195106776,-0.6782778053017875,-0.7327620870666411,-0.049565829912775056,0.02328456780335271,3.1003152841826602,-0.10153728359805667,1.650081390738778,1.0,0,init,1
2026-01-14 21:17:06.972,0.2861679744735079,0.8065463418337655,0.0064189722628275325,-0.6701802757975169,-0.7400006596455682,-0.05199879501510475,0.02352757898860813,3.095903761895116,-0.10470921563299027,1.6721334560930514,1.0,0,init,1
2026-01-14 21:17:07.022,0.2818061934064976,0.8107108770353311,0.009322520389265038,-0.660132154230175,-0.748802126516214,-0.05444514697306807,0.0235932246059202,3.090890813105276,-0.10742177648432864,1.6992251355685641,1.0,0,init,1
2026-01-14 21:17:07.072,0.2762643264053826,0.8152911688187084,0.01207509949737473,-0.6464235645811762,-0.7604929489700025,-0.056896960361757586,0.023447507813582395,3.084998614214927,-0.1094407367576276,1.7356983326914208,1.0,0,init,1
2026-01-14 21:17:07.122,0.2705100698270277,0.819426577833444,0.01424181087018303,-0.6318810921758204,-0.772475719414173,-0.058932384499739386,0.02311973882687786,3.079343784854719,-0.11041963782106726,1.7737991022882622,1.0,0,init,1
2026-01-14 21:17:07.172,0.26462789017904553,0.8231196769505013,0.015766299164266667,-0.617520037939374,-0.7838968939093155,-0.06048523083536646,0.022720020102850274,3.0743637253760374,-0.11054701215871898,1.8108522011507975,1.0,0,init,1
2026-01-14 21:17:07.222,0.2588892418232995,0.8265312197467848,0.01698301157061266,-0.6041075122452798,-0.794189625325,-0.06179825776375075,0.02231430062359517,3.0698970785153112,-0.11033287272179876,1.8449774304098017,1.0,0,init,1
2026-01-14 21:17:07.272,0.25342420292224865,0.8297474431265252,0.01812353411016257,-0.5920753523306369,-0.8031142719861641,-0.0630118366390688,0.021994356959390466,3.0658951523076934,-0.1101661797662612,1.8752197311690368,1.0,0,init,1
2026-01-14 21:17:07.322,0.24793302237627232,0.8327165195783852,0.019152176899231876,-0.5815188381096275,-0.8107142921453008,-0.06406592221083275,0.021765455342088215,3.062467911326892,-0.11002405732943026,1.901477580997591,1.0,0,init,1
2026-01-14 21:17:07.372,0.2421018546505176,0.8353684527001553,0.019878880154999223,-0.572295743698181,-0.817197598380128,-0.0648053939577906,0.021585362185343553,3.0597993961108654,-0.10967445193121914,1.9242102700918664,1.0,0,init,1
2026-01-14 21:17:07.422,0.23553530600053477,0.8377142290271062,0.020248874449733306,-0.5637280911426791,-0.8231032837864599,-0.06519419397526223,0.021478839551838377,3.057891425968139,-0.10907837925022124,1.9451508589670055,1.0,0,init,1
2026-01-14 21:17:07.472,0.22805317215081422,0.8398646925205459,0.020298917116221504,-0.5542408267372202,-0.8295171302433836,-0.06529958538324741,0.021316677958821587,3.0562881047679684,-0.10795807685675538,1.968148670016942,1.0,0,init,1
2026-01-14 21:17:07.522,0.21988932867551517,0.8420822220719582,0.020367446833008063,-0.5431838128809336,-0.8367953523219893,-0.06542269450789494,0.02108921050621553,3.054408082676696,-0.10656940827661672,1.9947275092645853,1.0,0,init,1
2026-01-14 21:17:07.572,0.21153678023832934,0.8442625379857954,0.02040450542585509,-0.5299651984295823,-0.8452256717242489,-0.06558247853125417,0.020721747548972522,3.0520829819234807,-0.1047333347315806,2.026200161718011,1.0,0,init,1
2026-01-14 21:17:07.622,0.2032294322244022,0.8463081348717212,0.020406785414628897,-0.5143318518053756,-0.8548299349688804,-0.06574817818259845,0.020142134078155998,3.04929274697491,-0.10224702584327408,2.0630148729713276,1.0,0,init,1
2026-01-14 21:17:07.672,0.19533745286553644,0.8483613669599949,0.020560667655286496,-0.4970939083286307,-0.8649555008629191,-0.06610956716381998,0.01947185042455644,3.0459690573441804,-0.09957436047116203,2.1031365387473655,1.0,0,init,1
2026-01-14 21:17:07.722,0.18837569683273428,0.8500616282161007,0.020636046834363236,-0.47988910765000575,-0.8746126367459391,-0.06640464931197697,0.018697661697404378,3.042760829074739,-0.0965902809270973,2.142703245817953,1.0,0,init,1
2026-01-14 21:17:07.772,0.18179609826288629,0.8515320488310768,0.020694016201973725,-0.461321119948732,-0.8845436105841812,-0.06669685519280201,0.017803223622097738,3.0394059490852765,-0.09316751802608228,2.184905666713373,1.0,0,init,1
2026-01-14 21:17:07.822,0.17635935311773768,0.8526496643601092,0.020659744416092835,-0.44409956968833736,-0.8933161580561636,-0.06689139891386169,0.016951540040819182,3.036522677972854,-0.08981977503392938,2.2236113719703,1.0,0,init,1
2026-01-14 21:17:07.872,0.17175522378942173,0.8536019346596713,0.020683266585052873,-0.4280713254869065,-0.9011051374371946,-0.06711808886818237,0.016113153845869713,3.033815163900935,-0.08661019121658782,2.2592867347845726,1.0,0,init,1
2026-01-14 21:17:07.922,0.16767284296938537,0.8543878015611713,0.020656105686657655,-0.41319341917781177,-0.9080259745323603,-0.06726789245595263,0.015331619850518818,3.0314951402965957,-0.08352941827241427,2.2921139708530975,1.0,0,init,1
2026-01-14 21:17:07.972,0.163932225182744,0.8550941298070095,0.020644014992211718,-0.399598561791817,-0.9140917776934607,-0.06740233859152335,0.014633390567937886,3.0294647353401745,-0.0807078692061682,2.321885251332941,1.0,0,init,1
2026-01-14 21:17:08.022,0.16018963583950518,0.8557846503974774,0.020629614346431513,-0.38734658191651594,-0.9193515001429007,-0.06751939825846316,0.014020539269415912,3.0277131982063143,-0.07816599760401967,2.348541432359381,1.0,0,init,1
2026-01-14 21:17:08.072,0.15633494253987162,0.856443609368689,0.020565861699875038,-0.37738288698820716,-0.9234903024078976,-0.0675504354000338,0.013592521630734008,3.026500639903689,-0.07616349498163902,2.3701032415740233,1.0,0,init,1
2026-01-14 21:17:08.122,0.1522705778496021,0.8572121253771176,0.02058511479621017,-0.3702726663635708,-0.9263617635185416,-0.06762289960972058,0.013385779140680738,3.025634398796962,-0.0749481176103637,2.385438600604181,1.0,0,init,1
2026-01-14 21:17:08.172,0.1479387365963581,0.8579242583694032,0.02055277883418749,-0.3657215843325771,-0.9281713188110282,-0.06757135911199005,0.013410336223406639,3.0253839294775893,-0.07438737247892205,2.3952339801488916,1.0,0,init,1
2026-01-14 21:17:08.222,0.14358057686112494,0.8586812774087154,0.02055056607303654,-0.36273419529842893,-0.9293417287335438,-0.06756371223654789,0.013527733903601034,3.025245075599327,-0.07422725549940125,2.401662076082659,1.0,0,init,1
2026-01-14 21:17:08.272,0.13872803889808832,0.8594304460318084,0.020515484649544752,-0.3600201829713648,-0.9303991994129533,-0.06748937299844313,0.013710657069508579,3.0252997571431828,-0.0741758427786473,2.4074964112326493,1.0,0,init,1
2026-01-14 21:17:08.322,0.1335935901462798,0.860185462070846,0.02045765739097216,-0.35668369976849895,-0.9316867353577616,-0.06741060225367577,0.01386997410409799,3.025296377038305,-0.07400098936772642,2.4146559416125615,1.0,0,init,1
2026-01-14 21:17:08.372,0.12817606520325023,0.8610047063458859,0.02046578789571679,-0.3516712346324714,-0.9335913769612951,-0.06738327077328263,0.013927613416545706,3.0249938407811396,-0.07346498081331197,2.4253856129242726,1.0,0,init,1
2026-01-14 21:17:08.422,0.12255515298396853,0.8618088227011497,0.020447933256149686,-0.34463548955583556,-0.9362122896491734,-0.06738454166220768,0.013865482084524422,3.0244022872433765,-0.07247170048520356,2.4404008941017556,1.0,0,init,1
2026-01-14 21:17:08.472,0.116923960581086,0.8625904126314289,0.02048066673337559,-0.3350598746407753,-0.9396801458784265,-0.06745977390541824,0.013611860719132665,3.023361850777597,-0.07084696938684718,2.460759387289019,1.0,0,init,1
2026-01-14 21:17:08.522,0.11171649438404768,0.8632801412722843,0.0204421783632856,-0.3223899627597401,-0.944102997737145,-0.0675419110623221,0.013127521683821195,3.021959813452825,-0.06839043427696577,2.4875653238633655,1.0,0,init,1
2026-01-14 21:17:08.572,0.10681214557232464,0.8638937616961363,0.020451878884611224,-0.3067563919564786,-0.9492988054719801,-0.06766955280402685,0.012374390757449845,3.020152714236803,-0.06505600398981395,2.520451802273343,1.0,0,init,1
2026-01-14 21:17:08.622,0.10252741920635379,0.8642611207125609,0.020313627692297914,-0.2907766890558322,-0.954323416616166,-0.06768901574026702,0.011572845280633308,3.0185865994242973,-0.06149199586272433,2.5538651610964003,1.0,0,init,1
2026-01-14 21:17:08.672,0.09872457764550283,0.8645341653577278,0.02017180875727878,-0.2741727573786121,-0.9592352284075353,-0.06769760617873417,0.01068221938650879,3.017046248918629,-0.05764712444307003,2.5883853915089925,1.0,0,init,1
2026-01-14 21:17:08.722,0.0956998974695694,0.8646244123944736,0.01997454879462565,-0.2595908629864059,-0.9632977194647657,-0.06761638994363668,0.009905116806221038,3.015951369555697,-0.05421490156814177,2.6185468840350263,1.0,0,init,1
2026-01-14 21:17:08.772,0.09299849230076399,0.8639115716472954,0.019172438218310717,-0.24645094689770816,-0.9667938015429,-0.06698475133976566,0.009204301135912413,3.0161179286389084,-0.05083612659981441,2.6455871467152328,1.0,0,init,1
2026-01-14 21:17:08.822,0.09054122216766056,0.862576957853134,0.01788389576259558,-0.23490272362692438,-0.9697440069539961,-0.06589585693523153,0.0086606840510704,3.017396896915182,-0.04777369590012901,2.669255582401251,1.0,0,init,1
2026-01-14 21:17:08.872,0.08833724103582613,0.8605587755270714,0.01610082571363647,-0.22580253169038267,-0.9720118996114033,-0.064323992601988,0.008276936135099527,3.0198589680537395,-0.045154944945446036,2.6878333607745244,1.0,0,init,1
2026-01-14 21:17:08.922,0.08616701208827669,0.8583020100817552,0.014161814169910636,-0.21933274452962326,-0.9736078582345475,-0.06256902027183235,0.008124239242121602,3.0229319718393275,-0.043280026689611006,2.701005214754718,1.0,0,init,1
2026-01-14 21:17:08.972,0.08434276005310924,0.8561508245257187,0.012340522634827128,-0.2154497513204895,-0.9745801852759985,-0.060901297323779184,0.008117826533028345,3.0260250812429588,-0.042077700059356286,2.708887123970999,1.0,0,init,1
2026-01-14 21:17:09.022,0.08269152637645967,0.8542282862555112,0.010704587112278535,-0.21282893361158803,-0.9752475452883118,-0.059408766282057435,0.008165103533962412,3.028857460076793,-0.041225479507765346,2.714195147280314,1.0,0,init,1
2026-01-14 21:17:09.072,0.0813079371561502,0.8526707467709462,0.009391213183048697,-0.21051817355042232,-0.975822131762249,-0.05818858900921003,0.00820694078762377,3.0311698964057308,-0.04052763332330391,2.7188772572934163,1.0,0,init,1
2026-01-14 21:17:09.122,0.07993786364672145,0.8514445319172372,0.008358177986367898,-0.20720894825807346,-0.9765869403045185,-0.05723628644589466,0.008149067573975028,3.03287807014415,-0.03964667304838738,2.725598154570693,1.0,0,init,1
2026-01-14 21:17:09.172,0.0783401163196353,0.8503737848689074,0.007417647248092463,-0.2026872940635411,-0.9775859998313519,-0.05637678925791471,0.008070402214540308,3.034352532587306,-0.03864235844341251,2.7347910970266507,1.0,0,init,1
2026-01-14 21:17:09.222,0.07664247431436565,0.8495691804486366,0.006684330627075852,-0.19662457398624586,-0.9788622130970892,-0.055725408587545766,0.007888188204348261,3.03532575436249,-0.03736556244114192,2.7471151758037196,1.0,0,init,1
2026-01-14 21:17:09.272,0.07508963687727448,0.8489811109784662,0.0061263937385716005,-0.18925367989646782,-0.9803426402967585,-0.05525745786026661,0.007613515117639854,3.0358672777018474,-0.035850740695207814,2.7620846273920825,1.0,0,init,1
2026-01-14 21:17:09.322,0.07360459645133413,0.8481883617983645,0.005440839795253005,-0.18149163616986835,-0.9818454293626128,-0.05464959212454402,0.007332183900569424,3.03668550613154,-0.034241721266378276,2.7778220334357457,1.0,0,init,1
2026-01-14 21:17:09.372,0.07235609092300795,0.847361106014941,0.004698719921231109,-0.17433116532538628,-0.9831792908270504,-0.05400835127623183,0.007086951215777275,3.0376208703180145,-0.03277203088281892,2.7923185516258537,1.0,0,init,1
2026-01-14 21:17:09.422,0.07137321663219307,0.8465523787509273,0.004031951760955499,-0.1689572229256773,-0.9841512566674733,-0.05340297938089105,0.006919726462820708,3.038584074507267,-0.03167104754222905,2.803184080935103,1.0,0,init,1
2026-01-14 21:17:09.472,0.07081022705238922,0.8457273936485985,0.0033570458998009034,-0.16553709730668859,-0.9847652465902674,-0.05280413595656197,0.006826547382595316,3.0396281082799863,-0.03093211239932494,2.810089075191384,1.0,0,init,1
2026-01-14 21:17:09.522,0.07044372732381132,0.8449120365336461,0.0027169399923375748,-0.16363485603780645,-0.9851149460921722,-0.05220761796912544,0.006822133192253882,3.040746554581105,-0.0305318862410885,2.8139246884104123,1.0,0,init,1
2026-01-14 21:17:09.572,0.07013083552820613,0.8440418161623532,0.0020137279147853238,-0.16197924330807642,-0.9854231604109095,-0.05154941035136938,0.006824804432657837,3.0419978700744417,-0.030155079609224013,2.817258793857256,1.0,0,init,1
2026-01-14 21:17:09.622,0.06978932632288516,0.8432806799163202,0.001422173446106345,-0.15955010925099997,-0.9858472324019933,-0.051019483859517094,0.006783013344569934,3.042959123766642,-0.029658706280796504,2.8221578120515103,1.0,0,init,1
2026-01-14 21:17:09.672,0.06931045516722745,0.8425979911500489,0.0008613705289819695,-0.15592354533443187,-0.9864539465913368,-0.050515133906586594,0.006684348219323323,3.0438188455124746,-0.02894464233674644,2.8294734949630893,1.0,0,init,1
2026-01-14 21:17:09.722,0.06867583350213537,0.842099384009758,0.0004571166164759888,-0.15105799580724316,-0.9872305189550145,-0.05014909891060602,0.006515537197057463,3.0443523789581546,-0.028019185131077304,2.8392876332203794,1.0,0,init,1
2026-01-14 21:17:09.772,0.06802278058153877,0.8417885390939542,0.00016088059881430583,-0.144986938168939,-0.9881533626214162,-0.049923036541042506,0.006277748235335767,3.0445626085390165,-0.02688637162067708,2.851526909717786,1.0,0,init,1
2026-01-14 21:17:09.822,0.06744851515833099,0.8416621438256604,3.570459295446082e-05,-0.1383931636753509,-0.9891039549771622,-0.04984684254345036,0.005999232026843034,3.0444611370836414,-0.02566747100383051,2.8648097915722044,1.0,0,init,1
2026-01-14 21:17:09.872,0.06663601792830542,0.8414377162429378,-0.00017505949878190985,-0.13201205622889692,-0.9899863843567113,-0.049665154281338414,0.005757451585153411,3.0445959823396067,-0.024514851041920645,2.877651976591529,1.0,0,init,1
2026-01-14 21:17:09.922,0.06575604521389249,0.8410424978977914,-0.0005291038866147013,-0.1266382623720463,-0.9907048568583648,-0.04935058683724324,0.0055818168597062245,3.0450459895524715,-0.023561391188851144,2.8884570504546057,1.0,0,init,1
2026-01-14 21:17:09.972,0.06473824609475148,0.8404519232795007,-0.001043816184836427,-0.12316052175036855,-0.9911659462978967,-0.04889575275930742,0.005546002494844071,3.0458596084439944,-0.023040108870907815,2.8954472642651865,1.0,0,init,1
2026-01-14 21:17:10.022,0.06337422601310957,0.8396551789271555,-0.0017523844264422106,-0.12150379864703224,-0.9914018395380503,-0.04824315880050297,0.005640665196678733,3.0471415459012916,-0.022909789824010443,2.898776592977085,1.0,0,init,1
2026-01-14 21:17:10.072,0.061781030957507345,0.8387911295753615,-0.0025152280665446114,-0.12066938733902313,-0.9915377088950894,-0.04751900726193863,0.0058150448959127625,3.0486037575976406,-0.023001879849881127,2.9004555160425602,1.0,0,init,1
2026-01-14 21:17:10.122,0.059960744414587,0.8380142037510717,-0.0032509548404222877,-0.11951202681194066,-0.9917093407090328,-0.046841520618006845,0.0059439838450716905,3.0499546828845334,-0.022987683260192845,2.9027811435809285,1.0,0,init,1
2026-01-14 21:17:10.172,0.05805858665663935,0.8375249029977333,-0.0037047348481357156,-0.11768207810601766,-0.9919479832564263,-0.04640905012232612,0.006027194446941443,3.0507920538468043,-0.022882350496985972,2.90646147496118,1.0,0,init,1
2026-01-14 21:17:10.222,0.0562722541983695,0.8373242597473836,-0.003942632174267602,-0.11560161004502946,-0.9922031443758864,-0.046180190445773685,0.006047979496713483,3.051204461243843,-0.022680601753183406,2.9106442596731954,1.0,0,init,1
2026-01-14 21:17:10.272,0.05478881707970164,0.8373828407377666,-0.003979672653236371,-0.11284977229537738,-0.9925215291022843,-0.04614914856653588,0.006016581083036064,3.051196919074945,-0.022360877720605726,2.9161762878600967,1.0,0,init,1
2026-01-14 21:17:10.322,0.05362912022096342,0.8374482787477249,-0.003968436379617635,-0.10936889760888142,-0.9929108357625595,-0.046167010519822096,0.005926516748999693,3.0510643374497626,-0.021869218653385643,2.923168258869779,1.0,0,init,1
2026-01-14 21:17:10.372,0.05287816310615854,0.8375055790371296,-0.003960381540507069,-0.10536822825552014,-0.9933431660116009,-0.04619157078145042,0.005764529563141567,3.0508946598737294,-0.021188145364061734,2.9311958683682238,1.0,0,init,1
2026-01-14 21:17:10.422,0.05254082061293132,0.8375071059032319,-0.003975156316065764,-0.10073234574656956,-0.993824610257133,-0.0462007794882798,0.0055791166260101225,3.05074190369745,-0.020398567215651687,2.9404933457322175,1.0,0,init,1
2026-01-14 21:17:10.472,0.05255644735568982,0.8374908720148502,-0.003995371174038059,-0.09529028157980726,-0.9943615979205466,-0.04622316321423008,0.005309802238221794,3.0505366888055376,-0.019370174623561737,2.951397445311849,1.0,0,init,1
2026-01-14 21:17:10.522,0.0525231396112075,0.8375008159630644,-0.003973310580337064,-0.08954343525957296,-0.9948949695931645,-0.04626422301777296,0.005059085756612362,3.0503004748481968,-0.018352863131651007,2.9629088884535504,1.0,0,init,1
2026-01-14 21:17:10.572,0.05256021439362541,0.8375358733043254,-0.003957393231336537,-0.08441301974167412,-0.9953422044083295,-0.046316094971687795,0.004812231107559817,3.0500627710436325,-0.017399874287525655,2.9731783609554108,1.0,0,init,1
2026-01-14 21:17:10.622,0.05253838984773364,0.8375340675161571,-0.0039600025575142195,-0.08051857622749829,-0.9956649245102909,-0.04633109962084999,0.004641787385952717,3.0499386129913026,-0.016705135076778725,2.9809716568042375,1.0,0,init,1
2026-01-14 21:17:10.672,0.052537704961189195,0.8374965324071534,-0.003994568046161551,-0.07795243505517088,-0.9958714247548818,-0.04629401436208926,0.004515247489792281,3.049950586922617,-0.016211384271131835,2.9861033720743952,1.0,0,init,1
2026-01-14 21:17:10.722,0.05251800636756244,0.8375197632530637,-0.003972582837328625,-0.07676131581497139,-0.9959624321508743,-0.04633149507889845,0.0044639334922809415,3.0498487304062145,-0.016005436521750967,2.988486515523047,1.0,0,init,1
2026-01-14 21:17:10.772,0.05250395284103874,0.8374744506704342,-0.004020254277194574,-0.07575199462235542,-0.9960416706072491,-0.04629278400186763,0.004427626227588785,3.049904482571593,-0.0158344035792809,2.9905052664855605,1.0,0,init,1
2026-01-14 21:17:10.822,0.05251310749387574,0.8374829586851539,-0.003994969646273383,-0.07424115167689897,-0.9961545261713155,-0.04631930404575046,0.00435125945067654,3.049816511668489,-0.015547276881870783,2.99352616577536,1.0,0,init,1
2026-01-14 21:17:10.872,0.05252819741193559,0.8374500611028821,-0.004047291718280416,-0.0716112648676562,-0.996348944261091,-0.046289031231713046,0.004234808318361904,3.04981994651385,-0.015068896026281437,2.998784009924862,1.0,0,init,1
2026-01-14 21:17:10.922,0.052514751537893256,0.8374269193599804,-0.004042397584622881,-0.06781254087045095,-0.996615213072913,-0.0462943620106604,0.004050730594807807,3.049728099625477,-0.014353208924900928,3.006376138031247,1.0,0,init,1
2026-01-14 21:17:10.972,0.05239069039530977,0.837051756608701,-0.004334512665008894,-0.06299166181081474,-0.9969437046684901,-0.046045190524145935,0.003891104441351798,3.050138113005532,-0.013559765822036291,3.016011367762092,1.0,0,init,1
2026-01-14 21:17:11.022,0.05231124472843407,0.8367499285696121,-0.004555546507942848,-0.059165493458436726,-0.9971879250684915,-0.045843057879741855,0.003755066663971845,3.0504750892409622,-0.012914027499411689,3.023655688394009,1.0,0,init,1
2026-01-14 21:17:11.072,0.052230959856386684,0.8365182981608018,-0.004746653830638603,-0.058277322282952376,-0.9972476751884751,-0.04568030211547425,0.0037600581577589957,3.050789569315068,-0.01282402138349957,3.025431739114757,1.0,0,init,1
2026-01-14 21:17:11.122,0.052253648157311476,0.8365357007284743,-0.004716429000394234,-0.05829450410215961,-0.9972457119693547,-0.045701781915149876,0.003753382474280633,3.050746086275646,-0.012814765315795973,3.0253970272197708,1.0,0,init,1
2026-01-14 21:17:11.172,0.05224974305529379,0.8365031513313764,-0.004805455587892332,-0.05830523925912367,-0.9972476099318183,-0.04564493689494646,0.003774029155811765,3.0508622245956083,-0.012850314704564655,3.02537666091654,1.0,0,init,1
2026-01-14 21:17:11.222,0.05223360271903783,0.836413867743257,-0.005070562999104161,-0.058324109311102136,-0.9972536850351656,-0.04548513621724006,0.0038063552315028937,3.0511856034827525,-0.012897921281461226,3.025339727233559,1.0,0,init,1
2026-01-14 21:17:11.272,0.052157282146334735,0.8361411238694514,-0.005926828045798388,-0.058360112895832005,-0.9972759046935729,-0.04493745014667818,0.0039360785963403816,3.0522957262456294,-0.013096196366189656,3.0252720521126966,1.0,0,init,1
2026-01-14 21:17:11.322,0.05192795780513605,0.8353328523246736,-0.0077164444808192345,-0.05840227477023958,-0.9973249857009914,-0.043752052490965906,0.004219609105917233,3.054698242356264,-0.013527494534394712,3.025196519701876,1.0,0,init,1
2026-01-14 21:17:11.372,0.05168480345031481,0.8345184141172654,-0.010134163113798972,-0.05842048508808534,-0.9973886322574256,-0.04221665305260994,0.00455163385723264,3.0578054342430474,-0.014012588998724337,3.025166856969475,1.0,0,init,1
2026-01-14 21:17:11.422,0.05155190155901654,0.8340118755706619,-0.01254694364852818,-0.05845132768655874,-0.9974445052066412,-0.040794368735321065,0.0048704008298837455,3.060685057807005,-0.014485385685342137,3.0251106927122824,1.0,0,init,1
2026-01-14 21:17:11.472,0.05146644709212338,0.8336941909879817,-0.014347055340527964,-0.05851758222072553,-0.9974811935431057,-0.03975923993679212,0.005115069746397948,3.062782862647724,-0.014858147621469024,3.0249820789802015,1.0,0,init,1
2026-01-14 21:17:11.522,0.051446394230217574,0.8337118133046652,-0.015395978178611575,-0.05853832677683797,-0.9975004751867943,-0.03922660768021544,0.005228723571778858,3.0638606752995488,-0.015024393694778414,3.024941334186412,1.0,0,init,1
2026-01-14 21:17:11.572,0.051459950249486755,0.8337269324610539,-0.01577002519483242,-0.05857089547112779,-0.9975057394694227,-0.039036992563696214,0.005278554807206261,3.064245832242606,-0.015104214953770822,3.024877066342477,1.0,0,init,1
2026-01-14 21:17:11.622,0.05145342757998531,0.8337922200896106,-0.01571781186786239,-0.05858848509304892,-0.9975024552470205,-0.03909260979054725,0.0052923577384111084,3.0641365540726584,-0.01513961159446029,3.024843733049797,1.0,0,init,1
