timestamp,x,y,z,qx,qy,qz,qw,roll,pitch,yaw,gripper_cmd_0to1,gripper_activated,gripper_last_action,logging_active
2026-01-14 21:17:50.519,0.4161022174006987,0.8029905694972485,0.2902965710484525,0.24239929455275147,0.9430349006040303,0.1962071210262365,0.1158901372061964,2.6976208639788255,0.12377172957539893,2.6104326188505143,1.0,0,init,1
2026-01-14 21:17:50.569,0.4111356473981132,0.7964974908803772,0.27731410256132044,0.24262767672669383,0.9449886613958213,0.1883138562100498,0.11254391089188906,2.71521375694881,0.12162476828216427,2.6125859192872887,1.0,0,init,1
2026-01-14 21:17:50.619,0.40527998862918635,0.7888141525683635,0.2630830366828455,0.24286839925272435,0.947080598178225,0.17949116701369539,0.10879431126146477,2.734831735542999,0.11917036556234942,2.614928736243525,1.0,0,init,1
2026-01-14 21:17:50.669,0.3993084443563546,0.781040669242365,0.2495807907516531,0.24307362305261299,0.9490139260427667,0.17097146175012432,0.10515008901563629,2.7537409566667876,0.11672537201472456,2.617158720221947,1.0,0,init,1
2026-01-14 21:17:50.719,0.3931580849450345,0.7729401493827334,0.23609781259900445,0.24325120754963367,0.9508883300156146,0.16230123880974687,0.10148173109768313,2.772914509014777,0.11428425626219647,2.6193737010211566,1.0,0,init,1
2026-01-14 21:17:50.768,0.3870624591131483,0.7649386211416538,0.22329886151010564,0.24343742205222035,0.9526016223296986,0.15394607232663143,0.09792332456876253,2.7913573994415954,0.11184440002953934,2.621393207769566,1.0,0,init,1
2026-01-14 21:17:50.818,0.38157690149558254,0.7578118197514656,0.212248333577967,0.24355621266180316,0.9540417740601014,0.14663515778625968,0.0947776087643687,2.8074828361255038,0.10963529085589534,2.6231869046249336,1.0,0,init,1
2026-01-14 21:17:50.868,0.3765514018789175,0.7512533455825849,0.2023565847898615,0.24364173928854432,0.9552936318795917,0.1399998762451746,0.09193918869605025,2.8220835816785996,0.10764599002266367,2.624791325292792,1.0,0,init,1
2026-01-14 21:17:50.918,0.3717600378503899,0.745103576236841,0.19335873319695485,0.24368527335666726,0.9564081693476364,0.1338939038446172,0.0892934693437172,2.8355196506608977,0.10574301425506281,2.6263001498967515,1.0,0,init,1
2026-01-14 21:17:50.968,0.3671158679200913,0.7391941830536215,0.1848837446432902,0.24368589026758825,0.9574381395674257,0.12805647496808403,0.08678095992156443,2.84834026512303,0.10395079968184379,2.6277730396307692,1.0,0,init,1
2026-01-14 21:17:51.019,0.3624060545438711,0.7333580742235828,0.17654847148341912,0.24364209351958654,0.9584297946899889,0.12228586661547483,0.08424384690884681,2.8610295769072946,0.1020728114161172,2.62929329998241,1.0,0,init,1
2026-01-14 21:17:51.069,0.3576007711525496,0.7279223423680455,0.16844526930449039,0.24340003058787696,0.9594121648131434,0.11672080129789994,0.08161481276554146,2.8733684975644813,0.0999511345286411,2.6311856256339117,1.0,0,init,1
2026-01-14 21:17:51.118,0.3525827085469469,0.7226600466497468,0.16017729008912476,0.2430112997895339,0.9604110579815056,0.11107805173986185,0.07885286490117481,2.885926730244645,0.09763090906980462,2.6333801425186283,1.0,0,init,1
2026-01-14 21:17:51.169,0.34748938528139117,0.7178599555116367,0.1518372768493643,0.24241391354955394,0.9614285099037336,0.10542084546026483,0.07600763253989017,2.8985580460363916,0.09518451533348442,2.6359779478521705,1.0,0,init,1
2026-01-14 21:17:51.218,0.34237610961219256,0.7136804599688722,0.14351569281017482,0.2415424201819136,0.9624636717585263,0.09983312014837982,0.07317299993302775,2.91105335804149,0.09275779908455718,2.6390763459567466,1.0,0,init,1
2026-01-14 21:17:51.268,0.3372331192140736,0.7101643826414816,0.13517377003766873,0.24033796714138186,0.9635241384782336,0.09423381510105025,0.07056120897225984,2.923465308520817,0.09080366160146662,2.6427468210113982,1.0,0,init,1
2026-01-14 21:17:51.318,0.3323210813195521,0.7077040551626899,0.12711763426060604,0.23879715991330455,0.9645879261089682,0.08891987173439123,0.06811244844284255,2.935247438457711,0.0890509150508124,2.6469971411817035,1.0,0,init,1
2026-01-14 21:17:51.368,0.32799473756764563,0.7066171922599934,0.11974953486583315,0.23699988502236752,0.9656024447600341,0.08422793670173293,0.06594412674225567,2.9456774645774373,0.08753935892550206,2.651615170317355,1.0,0,init,1
2026-01-14 21:17:51.418,0.3242906190667004,0.7067413769680305,0.1130936057696646,0.23505749998663727,0.9665496456674105,0.0801993772379948,0.06401417070362649,2.9546898919858484,0.08614934081287329,2.6563908238218703,1.0,0,init,1
2026-01-14 21:17:51.468,0.3213946100902354,0.7075068527202611,0.10725362027337335,0.2332784205992596,0.9673591645058968,0.07682007142330381,0.06241876284969889,2.9622411476384705,0.08502419928539327,2.660679312752278,1.0,0,init,1
2026-01-14 21:17:51.518,0.31845318599083566,0.7080975440406334,0.10064808400339295,0.23152315009789437,0.9681967365093763,0.07292509945051744,0.06061386187559095,2.9708914158571016,0.08370229219123046,2.6649860482504146,1.0,0,init,1
2026-01-14 21:17:51.568,0.31605885151241225,0.7084304613209483,0.09420149432891742,0.230121590469849,0.96891602422103,0.06911015739418165,0.05890312175335995,2.979298859315159,0.08243019528806174,2.6685177202309363,1.0,0,init,1
2026-01-14 21:17:51.619,0.3142359318768677,0.7084570958730796,0.08798586361770977,0.22913685466326322,0.9695042555293121,0.06539556096157892,0.05728194263553968,2.987423459664694,0.08119027778386306,2.6711471343676876,1.0,0,init,1
2026-01-14 21:17:51.668,0.31300911867593134,0.7081981391154284,0.08201504132433285,0.2285631407919305,0.9699640909678949,0.06180602134437152,0.05575453909532899,2.9952180281552385,0.07999192515292423,2.67288634516251,1.0,0,init,1
2026-01-14 21:17:51.718,0.3121544213632311,0.7077073140035709,0.0759185915276433,0.22827182358968337,0.9703485109888432,0.058112777682160756,0.05420928745924662,3.003195476360027,0.07875416645078737,2.6740389270022193,1.0,0,init,1
2026-01-14 21:17:51.768,0.3116145358980171,0.7070505457129446,0.06971055535711676,0.22817093926192314,0.970675245955573,0.05435848496016222,0.05265685594730931,3.011275690074908,0.07749690820939087,2.6747879124195,1.0,0,init,1
2026-01-14 21:17:51.819,0.31107668027253543,0.706344562633759,0.06357654284622064,0.22811026442790408,0.970974455569797,0.05062939663638688,0.05109773076961047,3.019302516663651,0.07620474667758256,2.6754352895562894,1.0,0,init,1
2026-01-14 21:17:51.868,0.31052039344984617,0.705669374270705,0.057426001879439525,0.2280464063196402,0.9712556096602328,0.04690645846961982,0.04956976318346479,3.027298930348698,0.07496632063952191,2.6760656611491798,1.0,0,init,1
2026-01-14 21:17:51.918,0.30996685426724657,0.7051111166656608,0.0516833415762174,0.22791235494290063,0.9715197464959909,0.04345578753966339,0.04813455268364376,3.0347218673299143,0.07378605010064924,2.676790656467293,1.0,0,init,1
2026-01-14 21:17:51.968,0.3090947947471152,0.7046530483488348,0.044220904083157764,0.22756189484902442,0.9718813151674848,0.039010391637622335,0.04626534972656423,3.044302512978795,0.07223710882084787,2.678069816392117,1.0,0,init,1
2026-01-14 21:17:52.018,0.30835599870835256,0.7050180431896561,0.03772438016923113,0.2270488441358445,0.9722181329520635,0.03542053376287365,0.044565795445992776,3.052140483138378,0.07062967502878625,2.6795802148692967,1.0,0,init,1
2026-01-14 21:17:52.069,0.3074024927455959,0.706691048443382,0.031367224957170564,0.2262056089712251,0.9726223806371025,0.03251554762798352,0.0421837209859998,3.0589762564552827,0.06739827859389759,2.6817846269946966,1.0,0,init,1
2026-01-14 21:17:52.119,0.3058486819292452,0.7099568463324403,0.02517184541412329,0.22503593107136005,0.9731082840440519,0.03063012940315594,0.03848236510965389,3.064439387174683,0.06114735503789232,2.6847123148196395,1.0,0,init,1
2026-01-14 21:17:52.169,0.3041109880158106,0.714274682187937,0.01922004770453664,0.2236017036881318,0.9736330428396098,0.02938820041980899,0.03431194653080283,3.0688527059751762,0.05369778856552169,2.688153025505108,1.0,0,init,1
2026-01-14 21:17:52.219,0.3024881974170966,0.7188681448680685,0.013105278597765224,0.22210182659960176,0.9741445820464716,0.028082811174571003,0.030405058907345028,3.0732452643209616,0.04678042005864309,2.691663115392735,1.0,0,init,1
2026-01-14 21:17:52.268,0.3010866173302612,0.7231630095685734,0.007042195105399024,0.22066550434709978,0.9746141317610154,0.026619191701808962,0.026934141829743873,3.0777224605016307,0.040764204630807314,2.6949719445090192,1.0,0,init,1
2026-01-14 21:17:52.318,0.3001191667026495,0.7268149899998446,0.0009445812601781567,0.21951177153890164,0.9749988438390429,0.024903079079993826,0.023909690937325073,3.0824626883080457,0.03569838573338644,2.697640388731357,1.0,0,init,1
2026-01-14 21:17:52.368,0.2997144534936231,0.7292969882421186,-0.005077774966551263,0.218833989270965,0.9752575566559374,0.0226929658207222,0.021665932417181906,3.087793140663063,0.032333377658465674,2.6992630033810734,1.0,0,init,1
2026-01-14 21:17:52.418,0.29961268291877297,0.7304988859155359,-0.011024720020258671,0.21861115700268866,0.9754054274891093,0.020122368281593677,0.019710513780054076,3.0936804517924834,0.02965788342129265,2.6999221740153616,1.0,0,init,1
2026-01-14 21:17:52.468,0.29941849756213995,0.7304577432403548,-0.017116264161658207,0.21858863283296368,0.9755004654704326,0.016932216325954146,0.018197568889181837,3.1005746253009825,0.028104793562167205,2.7001418823920256,1.0,0,init,1
2026-01-14 21:17:52.518,0.2987061058889533,0.7294270331382733,-0.02325260172302182,0.21856118786317374,0.975588114111044,0.013338500185598524,0.01676076304628928,3.108222142359043,0.026875880882416717,2.70036181584796,1.0,0,init,1
2026-01-14 21:17:52.568,0.2978565558112983,0.7281646909826908,-0.028844974277966368,0.21854757131727695,0.9756540943297073,0.009960712568916508,0.015389330528575555,3.1154180152711612,0.025678369465775973,2.7005296484702797,1.0,0,init,1
2026-01-14 21:17:52.619,0.2970812951228155,0.7270838486212914,-0.033721394264711824,0.2185100864637613,0.9757061846202364,0.007035652669130157,0.01418742397126011,3.1216556443706063,0.024613277579476768,2.700716310120095,1.0,0,init,1
2026-01-14 21:17:52.669,0.296361852717222,0.7260541813936318,-0.038143359428043866,0.21848902566404116,0.9757417215963022,0.00435498449840024,0.013102385686624427,3.1273640533650697,0.02366826580724183,2.70084993553948,1.0,0,init,1
2026-01-14 21:17:52.719,0.2956923374998884,0.7250691928918794,-0.042232232073872056,0.21846919328546321,0.975766853986579,0.00186802496548858,0.012114814446026733,3.132651263608945,0.022828239632244233,2.70096595950983,1.0,0,init,1
2026-01-14 21:17:52.768,0.29506269761586823,0.7241665447631828,-0.04598591072134825,0.21843157591798523,0.9757880397025386,-0.00039962534029234527,0.01118876736061163,3.137483585662446,0.022012089875671693,2.7011054760493574,1.0,0,init,1
2026-01-14 21:17:52.818,0.2945253172319487,0.7233760001694478,-0.049144615882825385,0.21843328002372112,0.9757934590420092,-0.002320303081251967,0.010423227068456895,3.1415673616072084,0.021357119971024522,2.701149474136213,1.0,0,init,1
2026-01-14 21:17:52.868,0.29410607066262684,0.7227828718632463,-0.05134391991106152,0.21839321525106056,0.9758040366881079,-0.0036880433333961477,0.009863257670202264,-3.1387025426584105,0.020861613735630717,2.7012627117514936,1.0,0,init,1
2026-01-14 21:17:52.918,0.2940111343770135,0.7225615894938318,-0.05211077597808958,0.2184151738886436,0.9757989211399365,-0.004159452530036911,0.009694135958405074,-3.1377089229693143,0.02073751622523062,2.701227741339855,1.0,0,init,1
2026-01-14 21:17:52.968,0.2941110286914611,0.7226468634010821,-0.05188603769669746,0.21842110402491927,0.9757975517453561,-0.004006948534110868,0.009762360767236439,-3.1380365466594826,0.02080408038606489,2.7012122897337583,1.0,0,init,1
2026-01-14 21:17:53.019,0.29411601061457976,0.722627470089689,-0.05189696081442016,0.21843358695299944,0.9757947398348359,-0.004010034990708313,0.009762859257650818,-3.138031005787928,0.02080644725365677,2.7011867587548615,1.0,0,init,1
2026-01-14 21:17:53.068,0.2941207421313469,0.7226604977994049,-0.05188859739038093,0.21843950687074745,0.9757932511866259,-0.0039959882699078944,0.009784929966329176,-3.138068194507799,0.020843409859150768,2.701174232048609,1.0,0,init,1
2026-01-14 21:17:53.118,0.29415548838432787,0.7226583134281828,-0.051883733796140225,0.21846836053744823,0.9757870214712085,-0.003983076219344052,0.00976725530831132,-3.1380862920391532,0.02080337470989578,2.70111493459699,1.0,0,init,1
2026-01-14 21:17:53.169,0.29405425682270897,0.7226411913022668,-0.051901505774829076,0.21842832307227641,0.9757961301068754,-0.004016687880870872,0.009738909936278637,-3.1380074437251886,0.020762589759283613,2.701197806766499,1.0,0,init,1
2026-01-14 21:17:53.219,0.29410118042239836,0.7226397198915203,-0.05189277510737603,0.21845542464149292,0.97578994483173,-0.0039984313902341915,0.009758255807887476,-3.138052110427075,0.020792472005787016,2.701141796487482,1.0,0,init,1
2026-01-14 21:17:53.269,0.29409752735769645,0.7226713663346178,-0.05187232309398372,0.21847124695580541,0.9757865705523612,-0.003976248423899077,0.009750509305098536,-3.1380923638630116,0.02076771678847548,2.7011089782941866,1.0,0,init,1
2026-01-14 21:17:53.318,0.29410784541106716,0.7226900924535072,-0.05187549162590638,0.21916185204008073,0.9756321172029535,-0.003946346505075874,0.009720125601348703,-3.1381521065329987,0.0206977884426147,2.699692827559703,1.0,0,init,1
2026-01-14 21:17:53.368,0.29408844483520463,0.7226895351434873,-0.05189135993570153,0.22100194617863242,0.9752169694364843,-0.003945965608828515,0.00971759557659183,-3.138190788107888,0.02069913844929668,2.6959195331787336,1.0,0,init,1
2026-01-14 21:17:53.418,0.2942309931681711,0.7227641542118298,-0.05181966227458415,0.22498027974394633,0.9743071458528506,-0.003807195219994712,0.009744974651812888,-3.1385580978114174,0.020703763635387402,2.6877531978433487,1.0,0,init,1
2026-01-14 21:17:53.468,0.29448032667178986,0.7231646334928253,-0.05154473012006397,0.2316167650815938,0.972751817817134,-0.0034325396506262435,0.009787376469001963,-3.139448018041544,0.020632907895278614,2.6741105376855776,1.0,0,init,1
2026-01-14 21:17:53.518,0.29458077861442283,0.723755814823016,-0.05123299689906509,0.2422311696130642,0.9701676531993876,-0.002824292048325189,0.009529350864863194,-3.1407290212107046,0.019859704507403812,2.6522468644664676,1.0,0,init,1
2026-01-14 21:17:53.568,0.2948295827288562,0.7243104814486855,-0.05087927245860413,0.25602733552249907,0.966620045219574,-0.002247648545412961,0.00952048953440864,3.1410627853719304,0.019557557749226413,2.6237415024758968,1.0,0,init,1
2026-01-14 21:17:53.618,0.29527355056936044,0.7249890750707225,-0.05040601322812786,0.27023313575163865,0.9627444125360901,-0.0015957561698802156,0.009731497039069776,3.139405296395116,0.01960159639252794,2.5942735817029523,1.0,0,init,1
2026-01-14 21:17:53.669,0.29587739893564885,0.7259156591242168,-0.04973852630555306,0.2851295121885505,0.9584371873514623,-0.0007414058323536166,0.009938284476152463,3.137345620928217,0.019474467148547878,2.5632386569949257,1.0,0,init,1
2026-01-14 21:17:53.718,0.2966229972047832,0.7270479888917257,-0.04894653535218188,0.29897382411738155,0.9542071337502732,0.0002687330593996675,0.010164948364856876,3.1350004248399723,0.01923943109593699,2.53426261614526,1.0,0,init,1
2026-01-14 21:17:53.769,0.29731264408505187,0.7286241663748203,-0.047934518406393956,0.31264995029477904,0.9498152173568533,0.0016501779444199614,0.009916570514928644,3.1322554788314454,0.01780690409145965,2.505513122411848,1.0,0,init,1
2026-01-14 21:17:53.818,0.2972230974015369,0.730885712339755,-0.04688369885763219,0.32645576594443565,0.9451721790510048,0.003561792250546454,0.007968592446049961,3.129655601887627,0.01273819302155077,2.476387377176645,1.0,0,init,1
2026-01-14 21:17:53.868,0.2963827749347844,0.73366226196631,-0.04579602473763539,0.3407060877425747,0.9401414198152898,0.0058189086486519475,0.004428636921092364,3.1276331462201146,0.004362028637377374,2.4462071947813384,1.0,0,init,1
2026-01-14 21:17:53.918,0.29478009970375685,0.7370972661102062,-0.04467211699453577,-0.35523695802611394,-0.9347378642146409,-0.008430752388632919,0.0008667583089453002,3.126446358093179,-0.007610286745743795,2.4152878970786196,1.0,0,init,1
2026-01-14 21:17:53.968,0.2922279387586432,0.7407422133959368,-0.04368043719908615,-0.36976285863941616,-0.9290284902498518,-0.010997419245010173,0.007781352378469176,3.1269090572710727,-0.022592992484512117,2.3841787437089494,1.0,0,init,1
2026-01-14 21:17:54.018,0.2896493794208167,0.7433211845274654,-0.0431713640733212,-0.38394003943621297,-0.9231672525734358,-0.012581378842647213,0.013927627226178269,3.12904978759551,-0.035383431705854,2.3535488524013557,1.0,0,init,1
2026-01-14 21:17:54.068,0.2877257119288802,0.7446368823472027,-0.043117763616194266,-0.39768354838443004,-0.9172508658641754,-0.013115245116034693,0.0180730396263526,3.131898049875168,-0.04360026950938271,2.3236062582737493,1.0,0,init,1
2026-01-14 21:17:54.118,0.2872079249829241,0.7450178260576757,-0.04310189561451802,-0.4113746046411361,-0.9111653296209928,-0.013055865622618634,0.019447908007305368,3.1337928992294963,-0.04619865413539202,2.2936017625447707,1.0,0,init,1
2026-01-14 21:17:54.168,0.28732103640672824,0.7448765904863808,-0.04327066819430028,-0.4251052168982928,-0.9048425603854644,-0.012628653570765857,0.01964720310686027,3.1354363854606637,-0.046308813973436794,2.2633226656684804,1.0,0,init,1
2026-01-14 21:17:54.219,0.28758878579636915,0.7447230345932657,-0.04349152049222388,-0.43869155536853255,-0.8983355869146441,-0.0122020947307364,0.019849468890669582,3.1370802215516576,-0.04638551258143134,2.233147938258191,1.0,0,init,1
2026-01-14 21:17:54.269,0.28785029586558664,0.7444386676076383,-0.04408277445209635,-0.45229483211454924,-0.891567625840196,-0.011538177812743067,0.020085413834657596,3.139185000726929,-0.04626883283688193,2.2027026881432414,1.0,0,init,1
2026-01-14 21:17:54.319,0.2879994356574144,0.7441028738255178,-0.04500785867282864,-0.4662630923230085,-0.8843482883704542,-0.0106326777740093,0.020341577052619138,-3.1414294091278263,-0.04590945349310754,2.171187374373516,1.0,0,init,1
2026-01-14 21:17:54.368,0.28818384657429946,0.743760852148,-0.04606911274193229,-0.48097531778709246,-0.8764394764386527,-0.009646029238203794,0.020580134583655006,-3.1387009220627884,-0.045369051351119634,2.137709889251501,1.0,0,init,1
2026-01-14 21:17:54.418,0.28832201151174247,0.7433153849185558,-0.04742423382604116,-0.4963851687468017,-0.8678117703116516,-0.008426864843719803,0.020820266705116677,-3.135542744816776,-0.04451678849665916,2.1023099088518378,1.0,0,init,1
2026-01-14 21:17:54.468,0.2885453263400967,0.7427686739421893,-0.04917121290691165,-0.512441963835133,-0.8584359023030421,-0.006965790408634818,0.021035995387361634,-3.131983427708693,-0.04326873389901359,2.0650393751046585,1.0,0,init,1
2026-01-14 21:17:54.519,0.2889060797076574,0.7420980118951307,-0.05130831567373016,-0.5289303311075627,-0.848383380615241,-0.005265862914524383,0.02122769460079814,-3.1280595301455607,-0.04160099421741746,2.0263335514986895,1.0,0,init,1
2026-01-14 21:17:54.568,0.2896714919589294,0.7416829012404115,-0.05375127119766708,-0.5455330550530197,-0.8378093258995856,-0.0035335546230733793,0.02137131890939168,-3.124181440446421,-0.039675930962457175,1.9868916088119633,1.0,0,init,1
2026-01-14 21:17:54.618,0.2908354535496182,0.7417595532759959,-0.05621971226169574,-0.5616743915498718,-0.8270783439661141,-0.0019866793536167373,0.021432310293045116,-3.1207866943767906,-0.03769305811586882,1.9480694427496767,1.0,0,init,1
2026-01-14 21:17:54.668,0.29236096365424086,0.7424746984403437,-0.058642739781173986,-0.5770080370188918,-0.8164555336168708,-0.0007275940087759022,0.02148388812469445,-3.1179705574071064,-0.03592866323394523,1.9107203993553223,1.0,0,init,1
2026-01-14 21:17:54.718,0.29386446303402364,0.7439151156238151,-0.06080923887381577,-0.591409867577061,-0.8060849848884433,0.00014880151483851625,0.02147890891061459,-3.115929032767909,-0.034458465405022246,1.8751996426206445,1.0,0,init,1
2026-01-14 21:17:54.769,0.2949124287061927,0.7454889993665691,-0.06279576536164631,-0.6044757160668429,-0.7963338202824122,0.0009094336414278484,0.021464582230931492,-3.114176147222744,-0.03309252412426472,1.842573430854742,1.0,0,init,1
2026-01-14 21:17:54.819,0.2953646801551185,0.7462470845836857,-0.06464874204348561,-0.6162690873446981,-0.7872416592262691,0.0019094809868678733,0.021432121788674798,-3.1121515393364896,-0.031396167739279925,1.8127751271309713,1.0,0,init,1
2026-01-14 21:17:54.868,0.29522155571914616,0.7460579554190744,-0.06620633508800919,-0.6268462634493355,-0.7788446099640682,0.0031045555488438087,0.021335352454762372,-3.1099898841181366,-0.029345902276901127,1.7857569641908089,1.0,0,init,1
2026-01-14 21:17:54.918,0.29507088296510564,0.7458246171410862,-0.06694051629344837,-0.636520638704632,-0.770956957293877,0.0038649259337874505,0.021258147867127233,-3.108551938327973,-0.027861628299510992,1.760789744196132,1.0,0,init,1
2026-01-14 21:17:54.968,0.29500212562137496,0.7458682345435398,-0.06692213854827134,-0.645220396233728,-0.7636907757117426,0.004091393258281954,0.021220270450536365,-3.107941295680113,-0.027135078704182462,1.7381179626788732,1.0,0,init,1
2026-01-14 21:17:55.018,0.2949342186392825,0.7458738856851943,-0.06698177826034994,-0.6531101881087022,-0.7569543543621939,0.004346189677096,0.021173054480174598,-3.107337629078853,-0.026380049623188132,1.7173689627997788,1.0,0,init,1
2026-01-14 21:17:55.068,0.2949177701882146,0.7458256913784898,-0.06700888797392839,-0.6602246666942183,-0.7507570822252527,0.0045835288269590446,0.021123073654795647,-3.1067999946869813,-0.02566709485843292,1.6984995026243288,1.0,0,init,1
2026-01-14 21:17:55.118,0.29489450481508345,0.7458244400652897,-0.0670139506291147,-0.6665215491965868,-0.7451719804019113,0.004778725377923949,0.021092839169675144,-3.1063346656028545,-0.025067963969280804,1.6816663213228926,1.0,0,init,1
2026-01-14 21:17:55.168,0.2948795543526286,0.7457542695775942,-0.06712385003272496,-0.6721058307259989,-0.7401385204277472,0.0050206307480122675,0.02105982312442382,-3.10583358248658,-0.024428011662508603,1.666631980465129,1.0,0,init,1
2026-01-14 21:17:55.218,0.29476785907813857,0.7456170401644413,-0.06744849135886623,-0.677170906050256,-0.7355069192792006,0.005382826858888065,0.02098001111778127,-3.1052422319722544,-0.023573882588608992,1.6529101696839446,1.0,0,init,1
2026-01-14 21:17:55.269,0.29460792807148645,0.7454098105248483,-0.06827958084843899,-0.6815413611622302,-0.7314573783628578,0.006042674877595419,0.020855760451096196,-3.1043067218346474,-0.022275376103984626,1.6410042139316992,1.0,0,init,1
2026-01-14 21:17:55.319,0.29429892116575224,0.7449649272818262,-0.069976465833079,-0.6851706710605369,-0.728053054167089,0.0072100338530830775,0.020686160790844888,-3.102729235684723,-0.020242419997619603,1.6310716276970452,1.0,0,init,1
2026-01-14 21:17:55.368,0.2937911350265557,0.7442561035135444,-0.07271858298901304,-0.6885724012048936,-0.724824267675532,0.009048597744429739,0.02039490540344011,-3.1003709274109323,-0.01710504948865845,1.6217299862913055,1.0,0,init,1
2026-01-14 21:17:55.419,0.2931166649267876,0.743295509317117,-0.07632125131800913,-0.691990119187694,-0.7215393732712155,0.011425433711502717,0.02000168069155169,-3.097404781241311,-0.013051796387285585,1.6123110010034245,1.0,0,init,1
2026-01-14 21:17:55.468,0.2924325514896645,0.7422881916977337,-0.08013360641157163,-0.6955060984732205,-0.718118827378139,0.01392131759299785,0.019565624653471326,-3.0943629520394835,-0.008736275425369732,1.60257979706533,1.0,0,init,1
2026-01-14 21:17:55.518,0.29176044031039505,0.7413692914818734,-0.08363831239756908,-0.6993106752620646,-0.71437803651477,0.016222076258246215,0.019116606699116172,-3.0916570853047043,-0.00462444219508966,1.5919964110945937,1.0,0,init,1
2026-01-14 21:17:55.568,0.2912703271363416,0.7406572035700538,-0.0863044346443925,-0.7032509920675883,-0.7104660940681383,0.018012411122147947,0.018748983467987514,-3.0896042962740276,-0.0013065424938616733,1.5809695465052354,1.0,0,init,1
2026-01-14 21:17:55.618,0.2911134389987942,0.740401903700698,-0.08747974528799167,-0.7066911095042255,-0.7070290442088234,0.01881603521767403,0.01853545822286928,-3.088763425503801,0.00038403499576136004,1.571284551922605,1.0,0,init,1
2026-01-14 21:17:55.668,0.2912271012172686,0.7405855325765494,-0.0873255177973701,-0.7088045074522139,-0.7049141684543578,0.018704478644831816,0.018502102754843756,-3.0889695131010186,0.00043084880315519047,1.5653039834897942,1.0,0,init,1
2026-01-14 21:17:55.718,0.29156479564751103,0.7410542477166652,-0.08697294128573009,-0.7091064793496914,-0.7046187653639701,0.018326419666462597,0.01856175593657814,-3.089418183537057,-0.00016715724527602508,1.5644432082903494,1.0,0,init,1
2026-01-14 21:17:55.768,0.2918021158179718,0.7414087218440107,-0.08673579050981531,-0.7090885589425947,-0.7046427036164886,0.018053791849144178,0.018604741778044817,-3.0897416486082654,-0.0006159166405595292,1.5644908421357202,1.0,0,init,1
2026-01-14 21:17:55.819,0.2917658627254851,0.7413655770686797,-0.08675463726887764,-0.7090757599436635,-0.7046545196382452,0.01808746526897279,0.018612313500841745,-3.0896834268748568,-0.0005797353289553014,1.5645265815573273,1.0,0,init,1
2026-01-14 21:17:55.869,0.291758293025425,0.741347510149715,-0.08677362357869792,-0.7090465798698032,-0.704684179399098,0.01810231528542965,0.018586582818296872,-3.0896990220966987,-0.0005245722646305905,1.564611259537116,1.0,0,init,1
2026-01-14 21:17:55.918,0.2917883777598977,0.7413591610742145,-0.08675225130903269,-0.7090406874250372,-0.7046898669572668,0.018098875996103478,0.018599077161466415,-3.0896861465149152,-0.0005474834924382668,1.5646270425456408,1.0,0,init,1
2026-01-14 21:17:55.968,0.29177022407354697,0.7413254093028924,-0.08677485774018694,-0.7090001195511305,-0.7047309615707633,0.01810679334109539,0.018580805013050337,-3.089700939602395,-0.0005134999027299475,1.564743457359992,1.0,0,init,1
2026-01-14 21:17:56.018,0.29175957157700155,0.7413188661721024,-0.08676364301888503,-0.7089888275999073,-0.70474240687216,0.018112802886134486,0.018571716833718603,-3.089705367722444,-0.0004930030966796064,1.5647761570437966,1.0,0,init,1
2026-01-14 21:17:56.068,0.291749620843384,0.7413171633699421,-0.0867844972827681,-0.708985130628705,-0.7047456567404395,0.018125063625077948,0.01857756500383254,-3.08967977914287,-0.0004841153136795394,1.5647862071600698,1.0,0,init,1
2026-01-14 21:17:56.118,0.29172690371121346,0.7413043993498043,-0.08680307329730143,-0.708978014141251,-0.7047522680953271,0.018146640572384146,0.018577284913496844,-3.0896497485039403,-0.00045362897854998104,1.564806410259004,1.0,0,init,1
2026-01-14 21:17:56.168,0.2917611685411289,0.7413133863959304,-0.08678570071730066,-0.7089944076471599,-0.7047360170282686,0.01813261527601784,0.01858183229491963,-3.089663066693907,-0.00047872732607537723,1.5647595803049537,1.0,0,init,1
2026-01-14 21:17:56.218,0.2917740285530624,0.7413202314348926,-0.08676782343720209,-0.7089887896429,-0.7047424354124451,0.01811051090553777,0.018574317870966167,-3.089704909603122,-0.0004999216323792063,1.56477607142949,1.0,0,init,1
2026-01-14 21:17:57.169,0.2949565061389185,0.746018452779789,-0.0844288667182516,-0.708940136931645,-0.7048510969989836,0.014837882782183722,0.01920027450877109,-3.0934324774604605,-0.006028364310532446,1.5648666477134154,1.0,0,init,1
2026-01-14 21:17:57.218,0.2954096382736379,0.7467024575680993,-0.08457204497196424,-0.7089182732472754,-0.7048765454234177,0.014617500261401035,0.01924230376431145,-3.0936838395304385,-0.006401714843450199,1.5649254039727671,1.0,0,init,1
2026-01-14 21:17:57.268,0.29509526777619577,0.7463202373654206,-0.08591268037402633,-0.7089180171510309,-0.7048626077479084,0.015481666852136247,0.01908578394901108,-3.0926871524279114,-0.004955266035529487,1.5649381769858894,1.0,0,init,1
2026-01-14 21:17:57.318,0.29453620730937524,0.7457615223310897,-0.08821886669387212,-0.7088724608772338,-0.7048823123355556,0.01690847168892482,0.018837822365652932,-3.091026746476602,-0.0025849985842529987,1.5650862180037077,1.0,0,init,1
2026-01-14 21:17:57.368,0.2937941664696424,0.744949920391388,-0.09132395980064874,-0.7088112489626996,-0.7049035625747122,0.01886395459693192,0.01848599552043089,-3.0887673758103094,0.0006802782887398302,1.5652860602623035,1.0,0,init,1
2026-01-14 21:17:57.419,0.2931309130579558,0.7440247808689948,-0.09458024147403113,-0.7088139270633712,-0.7048524735849659,0.02092417107394386,0.01811039334263998,-3.0863934497064953,0.004132388409826916,1.5653059132398783,1.0,0,init,1
2026-01-14 21:17:57.468,0.2926829810417134,0.7433907860956996,-0.09707899211698685,-0.7088071745246023,-0.7048193971871598,0.02244816362523706,0.01783498362862032,-3.0846336577393685,0.006682003769220622,1.5653447834926748,1.0,0,init,1
2026-01-14 21:17:57.519,0.2926861407266373,0.7434225472944845,-0.09826018842913017,-0.708804350387039,-0.7048062775682647,0.023016232369561875,0.017741392850736438,-3.0839647671654675,0.0076195948879346385,1.565359413886087,1.0,0,init,1
2026-01-14 21:17:57.568,0.2931816262654905,0.7441637750339932,-0.09793380671750818,-0.7088070147646388,-0.7048174081690087,0.022489485709251328,0.017867848076797317,-3.0845287370841743,0.006694319715909809,1.5653428892212868,1.0,0,init,1
2026-01-14 21:17:57.618,0.2942593422241924,0.745761603197936,-0.09688584297325552,-0.7087868731438607,-0.7048702947984007,0.021259638463215172,0.01808490370939265,-3.085956095772887,0.0046420991950889,1.5653844515008635,1.0,0,init,1
2026-01-14 21:17:57.668,0.2954289322964604,0.747579570380077,-0.09568774612782793,-0.7087587596713542,-0.7049308103553363,0.0198864669855573,0.01838754012163723,-3.087464260141463,0.0022655301711035744,1.5654421253873394,1.0,0,init,1
2026-01-14 21:17:57.718,0.29612331356544486,0.7492307042289911,-0.09476056230792676,-0.7086647101156412,-0.7050394116601755,0.018846857123997907,0.018935485711636245,-3.0881538478627304,1.1677669474680418e-05,1.565667856348905,1.0,0,init,1
2026-01-14 21:17:57.768,0.29555341823560705,0.7501317468692201,-0.09460340680333815,-0.7085251737429622,-0.7051474719281736,0.018818273087488836,0.020124452882389475,-3.086508041173873,-0.0017149745708607243,1.565970470104096,1.0,0,init,1
2026-01-14 21:17:57.818,0.2942366152693815,0.7506187574199451,-0.09522800612648416,-0.7083980857781276,-0.7052024030678287,0.019593721192284145,0.021858839472478284,-3.082954180219918,-0.003069507896848604,1.5661849751337487,1.0,0,init,1
2026-01-14 21:17:57.868,0.29321762097382187,0.7509268339462423,-0.09616180218026239,-0.7083214432961349,-0.705210291151005,0.020468023232173976,0.023243025761775882,-3.079757223881659,-0.0037865714636350057,1.5662772684570052,1.0,0,init,1
2026-01-14 21:17:57.919,0.29247085995862165,0.7510135580949261,-0.09722887811459681,-0.7083398073293543,-0.7051301056408537,0.021365172050270366,0.02428540497488736,-3.0770121709993665,-0.003981147160197797,1.5661261457240745,1.0,0,init,1
2026-01-14 21:17:57.969,0.29201098654369384,0.7509348198593154,-0.09817047128127486,-0.7083319972061377,-0.705101090729264,0.022056608758611082,0.024733370098632867,-3.0754007399814736,-0.0036322569876489678,1.5661043629036713,1.0,0,init,1
2026-01-14 21:17:58.019,0.2919074259203136,0.7507688559420629,-0.09869195702600708,-0.7083356408425507,-0.7050896018713575,0.022386314821421203,0.02466021398487667,-3.0750390884821437,-0.0030612763924614556,1.566101275062928,1.0,0,init,1
2026-01-14 21:17:58.069,0.2919213639934935,0.7507775425661299,-0.09869167689658462,-0.708338354826144,-0.7050874727069415,0.022378560037394052,0.02465017169478597,-3.0750642687707272,-0.0030578744890955275,1.566094575724963,1.0,0,init,1
2026-01-14 21:17:58.119,0.2919380794968239,0.7507940931534268,-0.09868224265262039,-0.7083399477621536,-0.7050859225576521,0.022370469979673274,0.024656080147156166,-3.075067300318558,-0.003077519818721359,1.5660894793580382,1.0,0,init,1
2026-01-14 21:17:58.168,0.29193182704650783,0.7507835720231621,-0.09870983782598314,-0.7083372779081639,-0.7050873138559668,0.02239410006616832,0.024671539215385306,-3.075012026429278,-0.0030660316677194373,1.5660955191439623,1.0,0,init,1
2026-01-14 21:17:58.218,0.2918868467232639,0.7507436805454891,-0.09887096952653134,-0.7083308883231255,-0.7050910277342303,0.022495423189216594,0.02465666627094783,-3.0748901227177146,-0.0029019862145095885,1.566115092897601,1.0,0,init,1
2026-01-14 21:17:58.268,0.2917951033016744,0.7506295572082745,-0.0993148890421026,-0.708335830809633,-0.7050793614409038,0.02276846995441613,0.02459759413539151,-3.074588459341124,-0.002431068163716579,1.566106914058337,1.0,0,init,1
2026-01-14 21:17:58.318,0.29163315166042303,0.7503734458639053,-0.10028377127678975,-0.708343438595384,-0.705056124357939,0.023357242564476167,0.024492319694434547,-3.073906630112992,-0.001447021477111633,1.5660957031126683,1.0,0,init,1
2026-01-14 21:17:58.368,0.2913925358341861,0.7500302949793431,-0.10163585724537695,-0.7083601893279101,-0.7050162205317403,0.024186324286056375,0.024351441025068855,-3.07293604338239,-7.106333121678465e-05,1.566062008087964,1.0,0,init,1
2026-01-14 21:17:58.418,0.2912415588970557,0.749785276807933,-0.10298899422647959,-0.7083658229352529,-0.7049891747472601,0.024950558223001306,0.024199050204501693,-3.072073310483858,0.0012281088586983116,1.5660608392579416,1.0,0,init,1
2026-01-14 21:17:58.469,0.29130663776457505,0.7498461016042035,-0.10384683245131911,-0.7083619980475394,-0.704982155303988,0.025333563447893635,0.02411744157395433,-3.0716483343708356,0.0018859364787486813,1.566079558385099,1.0,0,init,1
2026-01-14 21:17:58.519,0.29166333530344124,0.7504260218157015,-0.10367550416249852,-0.7083530380199102,-0.7050002447686441,0.02500829072812122,0.0241911925909682,-3.072002927553982,0.001319804413301249,1.5660978248734978,1.0,0,init,1
2026-01-14 21:17:58.568,0.2924954367195867,0.7516114912345524,-0.10288911847756112,-0.7083347278157744,-0.7050455716225096,0.024069806255242573,0.02435774481507718,-3.073091598019597,-0.00024768091092363737,1.5661335370311549,1.0,0,init,1
2026-01-14 21:17:58.618,0.2933788492181037,0.7528580073543348,-0.10206516143064419,-0.7083453403458291,-0.7050608403731109,0.02311701152278386,0.02452945089010189,-3.074193078195519,-0.0018398567651708524,1.5660866711117478,1.0,0,init,1
2026-01-14 21:17:58.668,0.29395788472131373,0.753652135128526,-0.10154320312123294,-0.7083460646257945,-0.705076638104326,0.022503824164427727,0.024624480230607468,-3.0749238591291608,-0.0028433047313784453,1.566075265579115,1.0,0,init,1
2026-01-14 21:17:58.718,0.2940221574045716,0.7537683123061362,-0.10148173605330844,-0.7083440426558466,-0.7050800496401979,0.02242330053418148,0.024658394645677737,-3.074989424442532,-0.0030054660661459603,1.566077649587512,1.0,0,init,1
2026-01-14 21:17:58.768,0.29401128869134363,0.7537266574206994,-0.10150409592179374,-0.7083512942738577,-0.7050720232465095,0.02245824687036682,0.024647780491029957,-3.074955121161124,-0.002940268679723825,1.5660581502197193,1.0,0,init,1
2026-01-14 21:17:58.818,0.29400175579896914,0.7536967545760012,-0.10157399380516877,-0.7083492174976375,-0.7050738174399442,0.022498368994744573,0.02461953337748547,-3.074938564229423,-0.0028437764522724735,1.56606681933281,1.0,0,init,1
2026-01-14 21:17:58.868,0.29396001531179605,0.7536131660213244,-0.10185081314105446,-0.70836963152807,-0.7050483400501982,0.022673409177168632,0.024601216179923033,-3.074717388820026,-0.002567787074905538,1.5660107833347219,1.0,0,init,1
2026-01-14 21:17:58.918,0.2937945236577869,0.7533855860606554,-0.10263950189304072,-0.7083630135375709,-0.7050418330601723,0.02316343654632,0.02452162095962974,-3.074138605314037,-0.0017612946609289477,1.5660373637650993,1.0,0,init,1
2026-01-14 21:17:58.969,0.29350217281850227,0.7529594512209211,-0.10408518436873054,-0.708378831712223,-0.7050020955579875,0.02406266802411948,0.02434058438972248,-3.073126000440393,-0.0002293566801219879,1.5660102418640562,1.0,0,init,1
2026-01-14 21:17:59.019,0.293131037169879,0.7524095682004662,-0.10597030208822965,-0.7083984273129139,-0.7049484830800995,0.025236250787525734,0.024133711480956117,-3.0717627322573615,0.0017285949999813366,1.5659747652114184,1.0,0,init,1
2026-01-14 21:17:59.068,0.2931246696482439,0.7523831042011057,-0.10687088305160794,-0.7083933674667561,-0.7049410882377949,0.025674769351421895,0.02403550003587215,-3.071282944264585,0.002488452104562621,1.565998556868091,1.0,0,init,1
2026-01-14 21:17:59.118,0.29332046449467375,0.7526700346225224,-0.10664441083313633,-0.7083813969470781,-0.7049598307610899,0.02544966033718931,0.024077962150550473,-3.0715404801054316,0.0021081411990463254,1.566028394530921,1.0,0,init,1
2026-01-14 21:17:59.168,0.29331368400182567,0.7526586975142255,-0.10664793882187418,-0.7083936052372649,-0.704947764087851,0.025445220266017383,0.024076767476214997,-3.0715484791613914,0.0021047373969282383,1.5659939163517276,1.0,0,init,1
2026-01-14 21:17:59.218,0.2933089536813144,0.7526388769954221,-0.10666579389683196,-0.7084034828687006,-0.7049367940768027,0.02547097864260852,0.024080096827090947,-3.071507422984897,0.0021375690761296557,1.5659656057631057,1.0,0,init,1
2026-01-14 21:17:59.268,0.2932904038142516,0.7526203691441096,-0.10668456009947729,-0.7084037087719446,-0.7049354496181587,0.025504277789575387,0.024077563918105865,-3.071464007288403,0.002188395005460488,1.5659652090617227,1.0,0,init,1
2026-01-14 21:17:59.319,0.2933034463084688,0.7526394617388749,-0.10667473909573194,-0.7083893581780373,-0.7049513575686315,0.025467501758949036,0.02407295238249238,-3.0715224217944463,0.002141295161751583,1.566006317863776,1.0,0,init,1
2026-01-14 21:17:59.368,0.2933025537241555,0.7526535196251335,-0.10665025451567929,-0.7083948062494917,-0.7049455928343659,0.025459757757488415,0.024089631733999927,-3.0715097140155403,0.0021073624395685545,1.5659892738509202,1.0,0,init,1
2026-01-14 21:17:59.418,0.2932830689141558,0.7526226068291556,-0.10666852153575498,-0.7083869839203554,-0.7049528522109456,0.025488235478690766,0.02407710580733767,-3.071487252978852,0.0021646213790877072,1.5660126453194698,1.0,0,init,1
2026-01-14 21:17:59.469,0.2932877516903819,0.7526196748634651,-0.1066797995494701,-0.7083958583083831,-0.7049442035242351,0.02549592743872908,0.024061079218317172,-3.0714991520532062,0.002198983923881701,1.5659890414527844,1.0,0,init,1
2026-01-14 21:17:59.518,0.29327918390874813,0.7526254248130547,-0.10667146570033655,-0.7083788225583081,-0.7049612427379186,0.025491042323822672,0.024068584286569335,-3.0714953513601215,0.0021797926412747363,1.5660365915176933,1.0,0,init,1
2026-01-14 21:17:59.569,0.2932921223157052,0.7526093940283921,-0.10666613664349633,-0.7083950606597172,-0.704944700868856,0.025489224128631263,0.024077088759965944,-3.07148590619238,0.002166850373814459,1.5659897606627493,1.0,0,init,1
2026-01-14 21:17:59.618,0.2932523927115927,0.7526234344040038,-0.10667320835055036,-0.7083773377500217,-0.7049620722170686,0.025502550709052458,0.024075797077988285,-3.0714688697982195,0.002185812098026955,1.5660401042151175,1.0,0,init,1
2026-01-14 21:18:03.819,0.29461583471785563,0.7545287092239065,-0.10100104326656888,-0.7083470694655406,-0.7050931247297753,0.021844710968119567,0.02471686147352775,-3.0757231851853652,-0.003908114132915724,1.566063284855985,1.0,0,init,1
2026-01-14 21:18:03.869,0.2951998005635578,0.7553487225267342,-0.09827108655464864,-0.7083437227564909,-0.7051366759161827,0.020107434820331158,0.025042559260146816,-3.0777132701857504,-0.006830956639024251,1.56604027921656,1.0,0,init,1
2026-01-14 21:18:03.918,0.29562286015731604,0.7558835147056071,-0.09564509226366069,-0.7083496504216392,-0.7051635883197758,0.018617960153044115,0.025267726752898585,-3.079495907207374,-0.00925984292939741,1.5660007322820597,1.0,0,init,1
2026-01-14 21:18:03.968,0.2959798650164521,0.756418897781181,-0.09386666411825373,-0.7083297755753484,-0.705205096315727,0.017496928947139865,0.02546681450675695,-3.0807957896363436,-0.011131693140525365,1.5660367547231877,1.0,0,init,1
2026-01-14 21:18:04.018,0.29613635227637386,0.7565540315270297,-0.09334486656546773,-0.7083351880462487,-0.7052066234667594,0.017180154537700935,0.025489642684009217,-3.0812103597096234,-0.011612574705393817,1.566019065499767,1.0,0,init,1
2026-01-14 21:18:04.068,0.29640265133294313,0.7560775515335673,-0.09279396936554395,-0.7084344800390007,-0.7051278778124503,0.01699126794178954,0.02503118529577095,-3.0821259232939795,-0.01122620879523041,1.5657840444780757,1.0,0,init,1
2026-01-14 21:18:04.118,0.29659748703506655,0.75624530764637,-0.0915176889327213,-0.7084607484058617,-0.705112376444059,0.01625622318462713,0.025211897219164243,-3.0829061672820943,-0.012520976598286401,1.5656913608772347,1.0,0,init,1
2026-01-14 21:18:04.168,0.2967246347185875,0.7564842803398099,-0.0910016918501054,-0.7084449167910641,-0.7051336896508484,0.015899659895517816,0.025287949847509036,-3.0833016122268044,-0.013135081992840728,1.565728506864826,1.0,0,init,1
2026-01-14 21:18:04.219,0.29665199404572096,0.7564029581120787,-0.0911486982990316,-0.7084318823104687,-0.7051452456504149,0.016011909567282198,0.025260035919834216,-3.0831830878900823,-0.01293765492010147,1.5657682822350782,1.0,0,init,1
2026-01-14 21:18:04.269,0.2966913840901389,0.7564591298519227,-0.09109304238384835,-0.7084336897207627,-0.7051438793787228,0.015962754226118724,0.025278590167723828,-3.0832260789674577,-0.01303334951195912,1.5657612781764598,1.0,0,init,1
2026-01-14 21:18:04.319,0.296678367905091,0.7563959327407465,-0.09112899967062467,-0.7084530469080326,-0.705124555207442,0.015998657682908278,0.02525242409309212,-3.0832122022283475,-0.01294397449916971,1.5657090694917977,1.0,0,init,1
2026-01-14 21:18:04.369,0.29667643776786745,0.7564137331891583,-0.09113803947200537,-0.7084516738178194,-0.705125321375537,0.016001183815273858,0.025267946815792874,-3.0831866307516873,-0.012962370317081084,1.565711391153287,1.0,0,init,1
2026-01-14 21:18:04.418,0.29668281153729487,0.7564150783118536,-0.09112915783693304,-0.7084504672113306,-0.7051268146804723,0.016001041597262823,0.025260193871404123,-3.0831978577683077,-0.012951751396346552,1.565715595030155,1.0,0,init,1
2026-01-14 21:18:04.468,0.29664704317095497,0.7564040636461213,-0.09113682764676717,-0.7084453105000704,-0.7051319909077323,0.01600609870694269,0.02525712242398681,-3.0831951762525756,-0.012940680076129429,1.5657305205675132,1.0,0,init,1
2026-01-14 21:18:04.518,0.29667908435512547,0.7564190906497434,-0.0911230702267165,-0.7084352590033519,-0.7051417221683951,0.016002636495550594,0.025269568327035048,-3.0831825808187667,-0.012963953122323308,1.5657577475160809,1.0,0,init,1
2026-01-14 21:18:04.568,0.2966837990070957,0.7564165133643169,-0.09111700790207589,-0.7084516334462302,-0.7051258549903004,0.01598796177572756,0.025262556676319225,-3.08321293802356,-0.012973532411923994,1.565712049619393,1.0,0,init,1
2026-01-14 21:18:04.618,0.29667409523474164,0.7564180004026947,-0.09112350222506414,-0.7084527835536104,-0.7051239345379334,0.016000976585575657,0.025275663496601836,-3.0831759499961335,-0.012973441706316815,1.565707465205085,1.0,0,init,1
2026-01-14 21:18:04.668,0.29667931358634286,0.7564159296856743,-0.09113712371614213,-0.7084533266252468,-0.7051231002037445,0.01600176574633691,0.025283216679863288,-3.0831641057937538,-0.012982916629059971,1.5657051616313509,1.0,0,init,1
2026-01-14 21:18:05.918,0.30230480749699673,0.7645136863052429,-0.0820529987770611,-0.7083216475775964,-0.7053393046769109,0.007896444058980866,0.026731162003823215,-3.0925478814473335,-0.026525744453280944,1.5659263714671305,1.0,0,init,1
2026-01-14 21:18:05.969,0.30482208629567875,0.7681033161630619,-0.07715442046293636,-0.7082466071171658,-0.7054205485963059,0.0038934448012668084,0.027448756122808213,-3.0971795537558315,-0.03321690310862386,1.566060315159761,1.0,0,init,1
2026-01-14 21:18:06.018,0.3073305554652002,0.7716928206112099,-0.07175877183415537,-0.7081550530034165,-0.7054930431475278,-0.0003326749839167422,0.02821127972148656,-3.102063772307187,-0.04028779178143716,1.5662336978669205,1.0,0,init,1
2026-01-14 21:18:06.068,0.3095641378772147,0.774893985652383,-0.06653920884086702,-0.7080454354841527,-0.7055615464130334,-0.004314649606636641,0.02891278803708743,-3.1066925235505933,-0.04692665985574005,1.5664629668086025,1.0,0,init,1
2026-01-14 21:18:06.118,0.3112795846844583,0.7773696454635042,-0.06200971980840547,-0.7079576397870458,-0.7055965957810912,-0.007611678629364025,0.029520952520780443,-3.110487231854638,-0.052461319889810155,1.5666395833375353,1.0,0,init,1
2026-01-14 21:18:06.168,0.31244655270868493,0.7790267813364762,-0.05838379028702091,-0.7078718362947696,-0.7056327813918349,-0.010130990338847743,0.02995336776804986,-3.113435003226968,-0.05664532994617083,1.566830473793746,1.0,0,init,1
2026-01-14 21:18:06.218,0.3130548012164988,0.7799795856608102,-0.05576744614500023,-0.7077988978563028,-0.7056658852560954,-0.011836535718498844,0.030270034709580788,-3.1153983759093262,-0.05951195798247797,1.5669984846924683,1.0,0,init,1
2026-01-14 21:18:06.268,0.31340444885543367,0.7804426167130754,-0.05382885455387129,-0.7077775508636885,-0.7056576837117167,-0.01300840667879819,0.03047873467998135,-3.116757839496221,-0.06146792319411309,1.5670331814628662,1.0,0,init,1
2026-01-14 21:18:06.318,0.3136550749679477,0.7808180805704745,-0.052311509181021176,-0.7077364833285023,-0.7056738745871521,-0.013928858272507063,0.03065028218770064,-3.1178170442487922,-0.06301582675446919,1.5671282988717499,1.0,0,init,1
2026-01-14 21:18:06.369,0.3138209589887795,0.7811529723304299,-0.05099049273341416,-0.7076960826453016,-0.7056915979759036,-0.014718782987163725,0.03080552843381858,-3.1187152427817733,-0.06435566923096987,1.5672234710524082,1.0,0,init,1
2026-01-14 21:18:06.418,0.3139429932457914,0.7815221536579181,-0.049773560267917266,-0.7076174938122651,-0.7057478925014453,-0.015466384280228535,0.03095457378019769,-3.1195661995637143,-0.0656279186053532,1.5674276622075527,1.0,0,init,1
2026-01-14 21:18:06.469,0.3140095987447941,0.7820838540231002,-0.04836576876634466,-0.7074680232889966,-0.705869155934542,-0.016355803513871413,0.031148329252665828,-3.120560904791478,-0.06716619544758366,1.5678271828299155,1.0,0,init,1
2026-01-14 21:18:06.518,0.314276799518159,0.7829256583362566,-0.04661317555645139,-0.7073240593832868,-0.7059747138877968,-0.01753785369743389,0.03138155598882061,-3.121913024270342,-0.06917421583272285,1.5682058745477465,1.0,0,init,1
2026-01-14 21:18:06.568,0.3145492372582144,0.7842462440003412,-0.0442029468077304,-0.7070247317590028,-0.7062165503659832,-0.019200803669274437,0.0317102792282655,-3.123825634180228,-0.07200173050442182,1.5690126781539078,1.0,0,init,1
2026-01-14 21:18:06.618,0.3146571338382749,0.7861486882359828,-0.041164079303063594,-0.7065022865041798,-0.7066598109436143,-0.021332847277588808,0.03211448876336606,-3.126320648096429,-0.07560345069102484,1.5704416712372364,1.0,0,init,1
2026-01-14 21:18:06.668,0.31444199434344505,0.7885043633549699,-0.03758637151226005,-0.7057734149054568,-0.7072853013228736,-0.023830155953095688,0.032611547227221704,-3.1292296556796746,-0.07985355561900145,1.5724423202610143,1.0,0,init,1
2026-01-14 21:18:06.718,0.3139404052254722,0.7909609428759454,-0.033884753699444214,-0.70488884493904,-0.7080535676508859,-0.02638184495286895,0.03310377432017938,-3.1322499993559982,-0.08417037856828997,1.5748825170138308,1.0,0,init,1
2026-01-14 21:18:06.768,0.31315202490942284,0.7927341454166043,-0.030712923474549958,-0.7040941351122062,-0.7087464776852591,-0.028414937263627604,0.03350329251934712,-3.134665054987385,-0.08761631898393911,1.5770784217428995,1.0,0,init,1
2026-01-14 21:18:06.819,0.3122601695335238,0.7938729449867203,-0.02821402953796462,-0.7034294514868903,-0.7093296229135383,-0.029900155673489262,0.03383006841393192,-3.1363955108767536,-0.09018082366595001,1.5789144704707452,1.0,0,init,1
2026-01-14 21:18:06.868,0.31128771712211306,0.7948901401674545,-0.025624421894800797,-0.7027832829495827,-0.7098911031608497,-0.031386988374249504,0.0341340859035886,-3.138162874718793,-0.09271223107717182,1.5807000643653464,1.0,0,init,1
2026-01-14 21:18:06.919,0.3103751045262441,0.7958554315844811,-0.023333617371331633,-0.7021644418447903,-0.7104296737908451,-0.03271456914203026,0.03441703316788162,-3.1397342427211106,-0.09498654837543316,1.5824100683529607,1.0,0,init,1
2026-01-14 21:18:06.968,0.308903992498564,0.7970359982702071,-0.021127209599352215,-0.7013508272998413,-0.711149738562704,-0.033937242169821615,0.03494753184322067,-3.1408370284884186,-0.09746391384326604,1.5846338110194829,1.0,0,init,1
2026-01-14 21:18:07.019,0.30687723719456395,0.7983594999156252,-0.018934547717260886,-0.700264229468537,-0.7121450153202226,-0.035158005134036475,0.03526188815692446,3.1408992970345095,-0.0996276726918929,1.5876539299469292,1.0,0,init,1
2026-01-14 21:18:07.068,0.30402060373518414,0.8000724162317319,-0.016503045416121576,-0.6987642600454552,-0.7135310788522015,-0.03652913111700246,0.035602401252973974,3.1392062702584496,-0.10203429643304078,1.5918292170046464,1.0,0,init,1
2026-01-14 21:18:07.118,0.30026668266759804,0.8021617559622299,-0.013654604076053845,-0.696845459654993,-0.7153024217825109,-0.038102211065245965,0.036014889451946974,3.137253240569211,-0.10481760926554404,1.5971627388283223,1.0,0,init,1
2026-01-14 21:18:07.169,0.29565498209465013,0.8047034423397684,-0.010259102628392164,-0.6944898924541871,-0.717461583806541,-0.03998838583694098,0.03651840685102604,3.134896545822228,-0.10815490098204975,1.6036948441191503,1.0,0,init,1
2026-01-14 21:18:07.219,0.2903051585156843,0.80754982091013,-0.00645020939332866,-0.6917698882913164,-0.7199348506967372,-0.04208287408482021,0.03711150919118793,3.132285713599329,-0.1118924022139637,1.6112143277310786,1.0,0,init,1
2026-01-14 21:18:07.268,0.28467326482154187,0.8104532595794414,-0.002370438325099644,-0.6889276187093578,-0.7224886917812808,-0.044320563100524804,0.03774273591142254,3.129472914677494,-0.11586377975092095,1.6190468708965855,1.0,0,init,1
2026-01-14 21:18:07.318,0.2792371753114074,0.8132381209965016,0.0016677070188566012,-0.6861559240977234,-0.724948619241403,-0.046537898662256265,0.038389728752417154,3.1266927996933243,-0.1198121151028012,1.626658187896727,1.0,0,init,1
2026-01-14 21:18:07.368,0.27449050593751706,0.8156581688486917,0.0053387874410559255,-0.6837448281811723,-0.7270598636884827,-0.048550595130190624,0.038984667002403196,3.1241720751814404,-0.12339370391907573,1.6332579541849694,1.0,0,init,1
2026-01-14 21:18:07.419,0.27031429237201415,0.8176886488313716,0.00841289851157015,-0.6816232805818817,-0.7289083526161471,-0.050229097470771526,0.0394886644808331,3.122043480846631,-0.12637801630836834,1.6390539524876648,1.0,0,init,1
2026-01-14 21:18:07.469,0.26672223444569976,0.8193188905716837,0.010635764230133016,-0.679840981402281,-0.7304660974561942,-0.05141337544333016,0.03990219666414978,3.120560405719733,-0.1285540341796027,1.6439123584988875,1.0,0,init,1
2026-01-14 21:18:07.519,0.26343989866134665,0.8206579460983864,0.01208129212201961,-0.6782568708684351,-0.7318694122335766,-0.05216167998195085,0.040173868348698696,3.1195504250273327,-0.12992733105284618,1.6482330876357791,1.0,0,init,1
2026-01-14 21:18:07.568,0.259997568265844,0.8218941177630051,0.01288694962345413,-0.6766666484250986,-0.7333009579223999,-0.05254031549673525,0.040391425658650996,3.119005391389911,-0.1307146212349852,1.6525657753170204,1.0,0,init,1
2026-01-14 21:18:07.618,0.2559062925779602,0.8232579269216431,0.013220445616061616,-0.6748097611855458,-0.734993389589557,-0.05264428946309146,0.040559613598835226,3.118748446907152,-0.13104661659248384,1.6576223263261267,1.0,0,init,1
2026-01-14 21:18:07.668,0.2509036225154462,0.8247492754220419,0.01318002286136391,-0.6725817835717031,-0.7370362140150167,-0.05246679016067646,0.040725907824783046,3.1188389555235716,-0.13098357216911236,1.6636745523771772,1.0,0,init,1
2026-01-14 21:18:07.718,0.2448036096322849,0.8266142261717098,0.01320764829287474,-0.6698271500666958,-0.7395377791793634,-0.052359838443279724,0.04091343933449245,3.118760666917548,-0.13103279236475182,1.6711387301589666,1.0,0,init,1
2026-01-14 21:18:07.768,0.23741897236735154,0.8287608565567931,0.01320489748737566,-0.6662509180925705,-0.7427617938270143,-0.05218147666695472,0.041130587943027354,3.1186841306519866,-0.13100679069320648,1.6807946835729644,1.0,0,init,1
2026-01-14 21:18:07.818,0.22911698950760037,0.8310981003055126,0.013222416129454712,-0.6623066670592819,-0.7462806199842983,-0.05199495930985935,0.04137196165331065,3.118589745979946,-0.13099774393272215,1.6913957161938462,1.0,0,init,1
2026-01-14 21:18:07.868,0.22048356982021383,0.8334419162175264,0.013216973891577583,-0.6584024346593143,-0.7497268843397238,-0.05178652126929817,0.04164119532101002,3.118575235565675,-0.13100620425988477,1.7018351772722975,1.0,0,init,1
2026-01-14 21:18:07.918,0.21210046879466046,0.8355756697996202,0.013182016230150723,-0.6546577680733674,-0.7530018349182661,-0.051539619910427825,0.04189404361493646,3.1186277042737416,-0.13094812466877012,1.7118025421502467,1.0,0,init,1
2026-01-14 21:18:07.969,0.20448065201758348,0.8374500644960439,0.013174182216458025,-0.6512076431732452,-0.7559888368922352,-0.051340252812607345,0.04211487158012699,3.1186197997667002,-0.13091672301638999,1.7209499022524708,1.0,0,init,1
2026-01-14 21:18:08.019,0.1975577094665824,0.8390655868128083,0.013126648171332023,-0.6480893601353147,-0.75866869156239,-0.05110416343718232,0.04231267188201698,3.118697578755985,-0.13081550992737315,1.7291850300233775,1.0,0,init,1
2026-01-14 21:18:08.068,0.1912448330796728,0.8405333094293993,0.013118327374642247,-0.6452389518607976,-0.7610935775542814,-0.050956647779147476,0.04250507327739119,3.118681160713275,-0.1308320276607469,1.7366874545945445,1.0,0,init,1
2026-01-14 21:18:08.118,0.18548294065079277,0.8418287079036599,0.013134721399912425,-0.6426197461545533,-0.7633050072308136,-0.05082655339349689,0.04268476612051584,3.1186624293045875,-0.13086045115672418,1.7435600069014667,1.0,0,init,1
2026-01-14 21:18:08.168,0.1800508259189123,0.842800474913678,0.012963088447974086,-0.6401921114263698,-0.765354714752643,-0.05053369485706455,0.04280848931508781,3.118855993030428,-0.13060085476814765,1.7499127796848608,1.0,0,init,1
2026-01-14 21:18:08.218,0.17452597273251017,0.8436271988334377,0.012709342473719826,-0.6376538502946567,-0.7674909299886501,-0.050162334450931385,0.04288332766926613,3.1190915881949692,-0.1301647911389658,1.7565420365973767,1.0,0,init,1
2026-01-14 21:18:08.268,0.16846785882022897,0.8443909449309572,0.012342796395731409,-0.6344678410941309,-0.7701521943036946,-0.049721336749809525,0.04294117951767283,3.1193075412639937,-0.1295981425519739,1.764842115603957,1.0,0,init,1
2026-01-14 21:18:08.318,0.16169526443024385,0.8451710177771914,0.011923885206137047,-0.6299625631148045,-0.7738720576283431,-0.04925905029816688,0.04292730436008234,3.11925035651787,-0.12885951578800406,1.776547641692608,1.0,0,init,1
2026-01-14 21:18:08.368,0.1543499277561487,0.8460285808794594,0.011531023698325621,-0.6233463730425101,-0.7792391083586566,-0.04890593060946917,0.042824305836473946,3.118572053755459,-0.12806115638561172,1.7936571661479201,1.0,0,init,1
2026-01-14 21:18:08.418,0.14645167679894125,0.8469021139424584,0.011115440430963325,-0.6146562207120924,-0.7861405736889774,-0.048627396886827566,0.04261578360072819,3.1173266522707044,-0.12712438178533012,1.8159669790906132,1.0,0,init,1
2026-01-14 21:18:08.469,0.1381845645517165,0.8477219842547223,0.010690475892482343,-0.602625071967971,-0.7954304682610736,-0.04846683259369524,0.042241672977071966,3.115188253103124,-0.1259480038123981,1.8465518581493618,1.0,0,init,1
2026-01-14 21:18:08.519,0.13005395851675167,0.8484489108103743,0.010247083259017076,-0.5876271528624092,-0.8066026225108711,-0.04847156114625751,0.041677887871730414,3.1121479833048555,-0.12452295699309693,1.8842036178436046,1.0,0,init,1
2026-01-14 21:18:08.569,0.12241534584446355,0.848971179568773,0.009766288884538704,-0.571397772493829,-0.8182105929642972,-0.04851181882064582,0.04101968533297828,3.1088311793071712,-0.12287352801125588,1.924372016637594,1.0,0,init,1
2026-01-14 21:18:08.618,0.1155112067500762,0.8493103581947778,0.00928988609614087,-0.5552128146127757,-0.8293094195899364,-0.048546678690074035,0.04034646276100438,3.1056025739647706,-0.12112282249404545,1.9638684004305396,1.0,0,init,1
2026-01-14 21:18:08.668,0.10943528787839478,0.8494833094096235,0.008793465255078237,-0.5397719351598046,-0.8394728102651501,-0.048556825578217576,0.039672326994236284,3.102609468268482,-0.11930976048863139,2.001059442690173,1.0,0,init,1
2026-01-14 21:18:08.718,0.10417332076987701,0.8493701769398947,0.008191624903167688,-0.5251167713638438,-0.8487542856061143,-0.0484618229331538,0.038987059592418744,3.099975674808087,-0.11734622671630555,2.0359381070443976,1.0,0,init,1
2026-01-14 21:18:08.769,0.09959984114486685,0.8489447515988409,0.0074629144895199395,-0.5109164168526312,-0.8574227887857724,-0.048226147113501656,0.03827290158694715,3.097695981531302,-0.11516558348566429,2.069362432832524,1.0,0,init,1
2026-01-14 21:18:08.818,0.0954258233360757,0.8481039211175334,0.006446050301765344,-0.4967212242565222,-0.8657830902241801,-0.047746331736153676,0.037522711265476155,3.0958879030429505,-0.11264435882474189,2.1024192177106955,1.0,0,init,1
2026-01-14 21:18:08.869,0.09162270264782706,0.8468413309049561,0.005143130427046144,-0.48244742731650814,-0.873891545200187,-0.047022054606959754,0.03670113736455772,3.0945206215059424,-0.1097370797184775,2.135319646221712,1.0,0,init,1
2026-01-14 21:18:08.919,0.08806907681856142,0.8454226115079612,0.003798172780730996,-0.4678580700550647,-0.8818647178784366,-0.04622829693626613,0.035866282326272224,3.093325887614785,-0.10671742666057088,2.1686223172809784,1.0,0,init,1
2026-01-14 21:18:08.968,0.08478979556244612,0.8439845166417513,0.002466166798869046,-0.45311700982190034,-0.8896020279371784,-0.04544009691253703,0.03504860757147284,3.092222403180902,-0.10372387440603965,2.2019598905251883,1.0,0,init,1
2026-01-14 21:18:09.019,0.08173081434356697,0.8425994955331858,0.0011933004753950094,-0.43812111779661833,-0.897148574915283,-0.04472013889998798,0.034269955425773546,3.0911023489619067,-0.10084700861144748,2.2355752551868022,1.0,0,init,1
2026-01-14 21:18:09.069,0.07881246521405827,0.8413696765758731,8.920035011761307e-05,-0.4229696270503786,-0.904447974814334,-0.04412782951057948,0.033515520431567504,3.089850282014076,-0.09811288462536219,2.2692566569743327,1.0,0,init,1
2026-01-14 21:18:09.118,0.07609974046620682,0.8404315924145628,-0.0007987756904960785,-0.40783838401705985,-0.9114153449359732,-0.04374025917876779,0.03281327878417951,3.088358305801409,-0.09563668636450372,2.3026313481475973,1.0,0,init,1
2026-01-14 21:18:09.168,0.07359651456100576,0.8396550315686988,-0.0015481493034730787,-0.3932432354088522,-0.9178440416598448,-0.04345335399970529,0.03215398919069903,3.086849029283233,-0.09333562696864103,2.334584490154031,1.0,0,init,1
2026-01-14 21:18:09.218,0.07150286315925074,0.8391165343343706,-0.002081273332060346,-0.3793744705975187,-0.9236877269464621,-0.04335275582476286,0.031567906324762585,3.0851910697082965,-0.09133858217693672,2.36474875589728,1.0,0,init,1
2026-01-14 21:18:09.268,0.06979953535929008,0.8387044920206895,-0.002488968812932091,-0.3663956029264355,-0.9289316660062819,-0.043346128775833354,0.031005405449963094,3.0835170724461727,-0.0894868536269234,2.3928081491169797,1.0,0,init,1
2026-01-14 21:18:09.319,0.06848331845997208,0.8384081751724004,-0.002794505740075809,-0.35408780765853387,-0.9337069399380504,-0.04341601984264816,0.030466768783671574,3.0818273971386403,-0.08775281436256357,2.419272921170237,1.0,0,init,1
